{"type":"FeatureCollection","name":"点","features":[{"type":"Feature","properties":{"NAME":"遵化市","QUHUADAIMA":"130281","Location":6,"Alignment":1},"geometry":{"type":"Point","coordinates":[118.08505637339424,40.306915149731267]}},{"type":"Feature","properties":{"NAME":"迁安市","QUHUADAIMA":"130283","Location":6,"Alignment":1},"geometry":{"type":"Point","coordinates":[118.81866986263336,40.141332138927694]}},{"type":"Feature","properties":{"NAME":"迁西县","QUHUADAIMA":"130227","Location":6,"Alignment":1},"geometry":{"type":"Point","coordinates":[118.43562280905344,40.272565693901669]}},{"type":"Feature","properties":{"NAME":"滦州市","QUHUADAIMA":"130284","Location":8,"Alignment":2},"geometry":{"type":"Point","coordinates":[118.84002674353278,39.87971448502708]}},{"type":"Feature","properties":{"NAME":"玉田县","QUHUADAIMA":"130229","Location":6,"Alignment":1},"geometry":{"type":"Point","coordinates":[117.87691310716089,40.015249515345943]}},{"type":"Feature","properties":{"NAME":"乐亭县","QUHUADAIMA":"130225","Location":6,"Alignment":1},"geometry":{"type":"Point","coordinates":[119.03142259777992,39.553559725447357]}},{"type":"Feature","properties":{"NAME":"滦南县","QUHUADAIMA":"130224","Location":6,"Alignment":1},"geometry":{"type":"Point","coordinates":[118.80323398242757,39.634169511096708]}},{"type":"Feature","properties":{"NAME":"丰南区","QUHUADAIMA":"130207","Location":8,"Alignment":2},"geometry":{"type":"Point","coordinates":[118.23694631884871,39.68935420838082]}},{"type":"Feature","properties":{"NAME":"路北区","QUHUADAIMA":"130203","Location":2,"Alignment":2},"geometry":{"type":"Point","coordinates":[118.32305109424387,39.751918419291272]}},{"type":"Feature","properties":{"NAME":"丰润区","QUHUADAIMA":"130208","Location":6,"Alignment":1},"geometry":{"type":"Point","coordinates":[118.27833238201953,39.961063820895909]}},{"type":"Feature","properties":{"NAME":"开平区","QUHUADAIMA":"130205","Location":6,"Alignment":1},"geometry":{"type":"Point","coordinates":[118.40575818870322,39.81715194263375]}},{"type":"Feature","properties":{"NAME":"古冶区","QUHUADAIMA":"130204","Location":6,"Alignment":1},"geometry":{"type":"Point","coordinates":[118.55012777724583,39.854839989404056]}},{"type":"Feature","properties":{"NAME":"路南区","QUHUADAIMA":"130202","Location":8,"Alignment":2},"geometry":{"type":"Point","coordinates":[118.27624941339248,39.751917925157613]}},{"type":"Feature","properties":{"NAME":"曹妃甸区","QUHUADAIMA":"130209","Location":4,"Alignment":3},"geometry":{"type":"Point","coordinates":[118.57539458146475,39.40134769209682]}},{"type":"Feature","properties":{"NAME":"宁河区","QUHUADAIMA":"120117","Location":6,"Alignment":1},"geometry":{"type":"Point","coordinates":[117.94775806758422,39.457540753469452]}}]}