{"type":"FeatureCollection","name":"点","features":[{"type":"Feature","properties":{"NAME":"桥西区","QUHUADAIMA":"130503","Location":4,"Alignment":3},"geometry":{"type":"Point","coordinates":[114.59103291651472,37.186719530718214]}},{"type":"Feature","properties":{"NAME":"桥东区","QUHUADAIMA":"130502","Location":6,"Alignment":1},"geometry":{"type":"Point","coordinates":[114.63551009323791,37.190458546794268]}},{"type":"Feature","properties":{"NAME":"临城县","QUHUADAIMA":"130522","Location":4,"Alignment":3},"geometry":{"type":"Point","coordinates":[114.62436853610888,37.571853594201542]}},{"type":"Feature","properties":{"NAME":"临西县","QUHUADAIMA":"130535","Location":8,"Alignment":2},"geometry":{"type":"Point","coordinates":[115.61668830952112,36.989682968628955]}},{"type":"Feature","properties":{"NAME":"威县","QUHUADAIMA":"130533","Location":6,"Alignment":1},"geometry":{"type":"Point","coordinates":[115.38806587665714,37.110699822417139]}},{"type":"Feature","properties":{"NAME":"南和县","QUHUADAIMA":"130527","Location":6,"Alignment":1},"geometry":{"type":"Point","coordinates":[114.81491470266137,37.127271827500678]}},{"type":"Feature","properties":{"NAME":"新河县","QUHUADAIMA":"130530","Location":8,"Alignment":2},"geometry":{"type":"Point","coordinates":[115.37281197154542,37.658335912863691]}},{"type":"Feature","properties":{"NAME":"隆尧县","QUHUADAIMA":"130525","Location":4,"Alignment":3},"geometry":{"type":"Point","coordinates":[114.8938016558172,37.481964169033795]}},{"type":"Feature","properties":{"NAME":"内丘县","QUHUADAIMA":"130523","Location":4,"Alignment":3},"geometry":{"type":"Point","coordinates":[114.64345572421803,37.423023212884821]}},{"type":"Feature","properties":{"NAME":"巨鹿县","QUHUADAIMA":"130529","Location":4,"Alignment":3},"geometry":{"type":"Point","coordinates":[115.15449729612956,37.34417208248221]}},{"type":"Feature","properties":{"NAME":"任县","QUHUADAIMA":"130526","Location":6,"Alignment":1},"geometry":{"type":"Point","coordinates":[114.80606420310035,37.256443118174751]}},{"type":"Feature","properties":{"NAME":"广宗县","QUHUADAIMA":"130531","Location":6,"Alignment":1},"geometry":{"type":"Point","coordinates":[115.27073178325232,37.200682497479676]}},{"type":"Feature","properties":{"NAME":"平乡县","QUHUADAIMA":"130532","Location":4,"Alignment":3},"geometry":{"type":"Point","coordinates":[115.15372312841852,37.199494617421912]}},{"type":"Feature","properties":{"NAME":"柏乡县","QUHUADAIMA":"130524","Location":2,"Alignment":2},"geometry":{"type":"Point","coordinates":[114.7930772476558,37.6168544094812]}},{"type":"Feature","properties":{"NAME":"宁晋县","QUHUADAIMA":"130528","Location":4,"Alignment":3},"geometry":{"type":"Point","coordinates":[115.04802645221493,37.74774874996158]}},{"type":"Feature","properties":{"NAME":"清河县","QUHUADAIMA":"130534","Location":8,"Alignment":2},"geometry":{"type":"Point","coordinates":[115.78390962621678,37.201662804634282]}},{"type":"Feature","properties":{"NAME":"邢台县","QUHUADAIMA":"130521","Location":2,"Alignment":2},"geometry":{"type":"Point","coordinates":[114.63535317217773,37.198322334089568]}},{"type":"Feature","properties":{"NAME":"沙河市","QUHUADAIMA":"130582","Location":1,"Alignment":3},"geometry":{"type":"Point","coordinates":[114.62950402487576,36.988462646062075]}},{"type":"Feature","properties":{"NAME":"南宫市","QUHUADAIMA":"130581","Location":8,"Alignment":2},"geometry":{"type":"Point","coordinates":[115.51233273961211,37.487890491082979]}}]}