{"type":"FeatureCollection","name":"点","features":[{"type":"Feature","properties":{"NAME":"安次区","QUHUADAIMA":"131002","Location":8,"Alignment":2},"geometry":{"type":"Point","coordinates":[116.82473441118121,39.6487170795355]}},{"type":"Feature","properties":{"NAME":"广阳区","QUHUADAIMA":"131003","Location":2,"Alignment":2},"geometry":{"type":"Point","coordinates":[116.83131739843192,39.649732198705721]}},{"type":"Feature","properties":{"NAME":"香河县","QUHUADAIMA":"131024","Location":6,"Alignment":1},"geometry":{"type":"Point","coordinates":[117.12169471449798,39.891975462153155]}},{"type":"Feature","properties":{"NAME":"大厂回族自治县","QUHUADAIMA":"131028","Location":4,"Alignment":3},"geometry":{"type":"Point","coordinates":[117.10826335131196,40.014618852309241]}},{"type":"Feature","properties":{"NAME":"文安县","QUHUADAIMA":"131026","Location":4,"Alignment":3},"geometry":{"type":"Point","coordinates":[116.58471870371555,38.994565956417652]}},{"type":"Feature","properties":{"NAME":"大城县","QUHUADAIMA":"131025","Location":4,"Alignment":3},"geometry":{"type":"Point","coordinates":[116.77445872305533,38.82495341386079]}},{"type":"Feature","properties":{"NAME":"固安县","QUHUADAIMA":"131022","Location":4,"Alignment":3},"geometry":{"type":"Point","coordinates":[116.42751313232698,39.56503344730465]}},{"type":"Feature","properties":{"NAME":"永清县","QUHUADAIMA":"131023","Location":6,"Alignment":1},"geometry":{"type":"Point","coordinates":[116.61037276238865,39.459296238572307]}},{"type":"Feature","properties":{"NAME":"三河市","QUHUADAIMA":"131082","Location":6,"Alignment":1},"geometry":{"type":"Point","coordinates":[117.1992712356402,40.108444147287507]}},{"type":"Feature","properties":{"NAME":"霸州市","QUHUADAIMA":"131081","Location":6,"Alignment":1},"geometry":{"type":"Point","coordinates":[116.51450290878454,39.23632854423748]}}]}