{"type":"FeatureCollection","name":"点","features":[{"type":"Feature","properties":{"NAME":"桃城区","QUHUADAIMA":"131102","Location":4,"Alignment":3},"geometry":{"type":"Point","coordinates":[115.8004469484483,37.862927993319182]}},{"type":"Feature","properties":{"NAME":"安平县","QUHUADAIMA":"131125","Location":4,"Alignment":3},"geometry":{"type":"Point","coordinates":[115.6370511753626,38.3587099240527]}},{"type":"Feature","properties":{"NAME":"饶阳县","QUHUADAIMA":"131124","Location":6,"Alignment":1},"geometry":{"type":"Point","coordinates":[115.85292742445428,38.36719070670226]}},{"type":"Feature","properties":{"NAME":"武邑县","QUHUADAIMA":"131122","Location":6,"Alignment":1},"geometry":{"type":"Point","coordinates":[116.01092341727424,37.932033719812345]}},{"type":"Feature","properties":{"NAME":"故城县","QUHUADAIMA":"131126","Location":4,"Alignment":3},"geometry":{"type":"Point","coordinates":[116.09545732129732,37.47438595151003]}},{"type":"Feature","properties":{"NAME":"阜城县","QUHUADAIMA":"131128","Location":6,"Alignment":1},"geometry":{"type":"Point","coordinates":[116.27704851075345,37.9989085679396]}},{"type":"Feature","properties":{"NAME":"枣强县","QUHUADAIMA":"131121","Location":6,"Alignment":1},"geometry":{"type":"Point","coordinates":[115.84188599731486,37.636147812612045]}},{"type":"Feature","properties":{"NAME":"景县","QUHUADAIMA":"131127","Location":4,"Alignment":3},"geometry":{"type":"Point","coordinates":[116.38930677903487,37.818886886699431]}},{"type":"Feature","properties":{"NAME":"武强县","QUHUADAIMA":"131123","Location":4,"Alignment":3},"geometry":{"type":"Point","coordinates":[116.10156319635355,38.1688397587905]}},{"type":"Feature","properties":{"NAME":"深州市","QUHUADAIMA":"131182","Location":6,"Alignment":1},"geometry":{"type":"Point","coordinates":[115.67117712164782,38.139492473692144]}},{"type":"Feature","properties":{"NAME":"冀州区","QUHUADAIMA":"131103","Location":4,"Alignment":3},"geometry":{"type":"Point","coordinates":[115.69433695481831,37.678904605500328]}}]}