{"type":"FeatureCollection","name":"点","features":[{"type":"Feature","properties":{"NAME":"武乡县","QUHUADAIMA":"140429","Location":6,"Alignment":1},"geometry":{"type":"Point","coordinates":[112.98594784376803,36.964463155632558]}},{"type":"Feature","properties":{"NAME":"沁县","QUHUADAIMA":"140430","Location":6,"Alignment":1},"geometry":{"type":"Point","coordinates":[112.82094324396009,36.889730852421472]}},{"type":"Feature","properties":{"NAME":"沁源县","QUHUADAIMA":"140431","Location":6,"Alignment":1},"geometry":{"type":"Point","coordinates":[112.46090233955594,36.627241262082073]}},{"type":"Feature","properties":{"NAME":"黎城县","QUHUADAIMA":"140426","Location":6,"Alignment":1},"geometry":{"type":"Point","coordinates":[113.51123785405925,36.631103824032991]}},{"type":"Feature","properties":{"NAME":"长子县","QUHUADAIMA":"140428","Location":6,"Alignment":1},"geometry":{"type":"Point","coordinates":[113.00272574022415,36.249642753611781]}},{"type":"Feature","properties":{"NAME":"壶关县","QUHUADAIMA":"140427","Location":6,"Alignment":1},"geometry":{"type":"Point","coordinates":[113.32776003843469,36.241887211087288]}},{"type":"Feature","properties":{"NAME":"平顺县","QUHUADAIMA":"140425","Location":6,"Alignment":1},"geometry":{"type":"Point","coordinates":[113.56116130348147,36.330519271281965]}},{"type":"Feature","properties":{"NAME":"襄垣县","QUHUADAIMA":"140423","Location":6,"Alignment":1},"geometry":{"type":"Point","coordinates":[113.17106631258342,36.663124869795553]}},{"type":"Feature","properties":{"NAME":"潞州区","QUHUADAIMA":"140403","Location":6,"Alignment":1},"geometry":{"type":"Point","coordinates":[113.24923103460438,36.321447765612412]}},{"type":"Feature","properties":{"NAME":"上党区","QUHUADAIMA":"140404","Location":6,"Alignment":1},"geometry":{"type":"Point","coordinates":[113.17429404142706,36.177259836158555]}},{"type":"Feature","properties":{"NAME":"屯留区","QUHUADAIMA":"140405","Location":6,"Alignment":1},"geometry":{"type":"Point","coordinates":[113.01851235397717,36.451674478726041]}},{"type":"Feature","properties":{"NAME":"潞城区","QUHUADAIMA":"140406","Location":6,"Alignment":1},"geometry":{"type":"Point","coordinates":[113.35479297950526,36.459692516382447]}}]}