{"type":"FeatureCollection","name":"点","features":[{"type":"Feature","properties":{"NAME":"山阴县","QUHUADAIMA":"140621","Location":6,"Alignment":1},"geometry":{"type":"Point","coordinates":[112.95556814078795,39.647080282025726]}},{"type":"Feature","properties":{"NAME":"应县","QUHUADAIMA":"140622","Location":6,"Alignment":1},"geometry":{"type":"Point","coordinates":[113.31398479556543,39.694431312831057]}},{"type":"Feature","properties":{"NAME":"怀仁市","QUHUADAIMA":"140681","Location":6,"Alignment":1},"geometry":{"type":"Point","coordinates":[113.2267252235993,39.955755714699514]}},{"type":"Feature","properties":{"NAME":"右玉县","QUHUADAIMA":"140623","Location":6,"Alignment":1},"geometry":{"type":"Point","coordinates":[112.5846456265497,40.1164369590522]}},{"type":"Feature","properties":{"NAME":"朔城区","QUHUADAIMA":"140602","Location":6,"Alignment":1},"geometry":{"type":"Point","coordinates":[112.55446485792695,39.444024245526165]}},{"type":"Feature","properties":{"NAME":"平鲁区","QUHUADAIMA":"140603","Location":6,"Alignment":1},"geometry":{"type":"Point","coordinates":[112.41226158098819,39.654808212883509]}}]}