{"type":"FeatureCollection","name":"点","features":[{"type":"Feature","properties":{"NAME":"原平市","QUHUADAIMA":"140981","Location":6,"Alignment":1},"geometry":{"type":"Point","coordinates":[112.84822189896657,38.8591180815428]}},{"type":"Feature","properties":{"NAME":"代县","QUHUADAIMA":"140923","Location":6,"Alignment":1},"geometry":{"type":"Point","coordinates":[113.07227350253872,39.193752086855021]}},{"type":"Feature","properties":{"NAME":"繁峙县","QUHUADAIMA":"140924","Location":6,"Alignment":1},"geometry":{"type":"Point","coordinates":[113.39564152018168,39.318699564757708]}},{"type":"Feature","properties":{"NAME":"宁武县","QUHUADAIMA":"140925","Location":6,"Alignment":1},"geometry":{"type":"Point","coordinates":[112.42952984595351,39.132050920678395]}},{"type":"Feature","properties":{"NAME":"保德县","QUHUADAIMA":"140931","Location":6,"Alignment":1},"geometry":{"type":"Point","coordinates":[111.20965728003314,39.148660158612131]}},{"type":"Feature","properties":{"NAME":"神池县","QUHUADAIMA":"140927","Location":4,"Alignment":3},"geometry":{"type":"Point","coordinates":[112.31895653877712,39.21597915422344]}},{"type":"Feature","properties":{"NAME":"河曲县","QUHUADAIMA":"140930","Location":6,"Alignment":1},"geometry":{"type":"Point","coordinates":[111.26249413812764,39.509692311736707]}},{"type":"Feature","properties":{"NAME":"偏关县","QUHUADAIMA":"140932","Location":6,"Alignment":1},"geometry":{"type":"Point","coordinates":[111.62094062159639,39.570120727452966]}},{"type":"Feature","properties":{"NAME":"定襄县","QUHUADAIMA":"140921","Location":6,"Alignment":1},"geometry":{"type":"Point","coordinates":[113.08080100919808,38.616189641011296]}},{"type":"Feature","properties":{"NAME":"五台县","QUHUADAIMA":"140922","Location":6,"Alignment":1},"geometry":{"type":"Point","coordinates":[113.38011465011847,38.852457075347083]}},{"type":"Feature","properties":{"NAME":"静乐县","QUHUADAIMA":"140926","Location":6,"Alignment":1},"geometry":{"type":"Point","coordinates":[112.07571949689896,38.491675932276529]}},{"type":"Feature","properties":{"NAME":"岢岚县","QUHUADAIMA":"140929","Location":6,"Alignment":1},"geometry":{"type":"Point","coordinates":[111.69481788731538,38.831338442833804]}},{"type":"Feature","properties":{"NAME":"五寨县","QUHUADAIMA":"140928","Location":6,"Alignment":1},"geometry":{"type":"Point","coordinates":[111.96240017457662,39.038268572437346]}},{"type":"Feature","properties":{"NAME":"忻府区","QUHUADAIMA":"140902","Location":6,"Alignment":1},"geometry":{"type":"Point","coordinates":[112.86635761600475,38.529850859484974]}}]}