{"type":"FeatureCollection","name":"点","features":[{"type":"Feature","properties":{"NAME":"武川县","QUHUADAIMA":"150125","Location":4,"Alignment":3},"geometry":{"type":"Point","coordinates":[111.58042472672777,41.221088972217238]}},{"type":"Feature","properties":{"NAME":"和林格尔县","QUHUADAIMA":"150123","Location":6,"Alignment":1},"geometry":{"type":"Point","coordinates":[111.95381867173539,40.509139702616153]}},{"type":"Feature","properties":{"NAME":"托克托县","QUHUADAIMA":"150122","Location":6,"Alignment":1},"geometry":{"type":"Point","coordinates":[111.31226272845777,40.401463383185366]}},{"type":"Feature","properties":{"NAME":"土默特左旗","QUHUADAIMA":"150121","Location":8,"Alignment":2},"geometry":{"type":"Point","coordinates":[111.25235791576156,40.8452303004567]}},{"type":"Feature","properties":{"NAME":"清水河县","QUHUADAIMA":"150124","Location":6,"Alignment":1},"geometry":{"type":"Point","coordinates":[111.8044371690425,40.038890655000344]}},{"type":"Feature","properties":{"NAME":"玉泉区","QUHUADAIMA":"150104","Location":8,"Alignment":2},"geometry":{"type":"Point","coordinates":[111.79465771927519,40.881463701312242]}},{"type":"Feature","properties":{"NAME":"回民区","QUHUADAIMA":"150103","Location":4,"Alignment":3},"geometry":{"type":"Point","coordinates":[111.74316932869263,40.936695321354158]}},{"type":"Feature","properties":{"NAME":"新城区","QUHUADAIMA":"150102","Location":2,"Alignment":2},"geometry":{"type":"Point","coordinates":[111.78205242028842,40.9847337538237]}},{"type":"Feature","properties":{"NAME":"赛罕区","QUHUADAIMA":"150105","Location":6,"Alignment":1},"geometry":{"type":"Point","coordinates":[111.82390471265425,40.91713153941452]}}]}