{"type":"FeatureCollection","name":"点","features":[{"type":"Feature","properties":{"NAME":"达拉特旗","QUHUADAIMA":"150621","Location":8,"Alignment":2},"geometry":{"type":"Point","coordinates":[110.15628639445265,40.527556066727314]}},{"type":"Feature","properties":{"NAME":"准格尔旗","QUHUADAIMA":"150622","Location":4,"Alignment":3},"geometry":{"type":"Point","coordinates":[111.37205527756861,39.993159655162607]}},{"type":"Feature","properties":{"NAME":"伊金霍洛旗","QUHUADAIMA":"150627","Location":8,"Alignment":2},"geometry":{"type":"Point","coordinates":[109.86602425369028,39.701846577231379]}},{"type":"Feature","properties":{"NAME":"杭锦旗","QUHUADAIMA":"150625","Location":2,"Alignment":2},"geometry":{"type":"Point","coordinates":[108.85176248193339,39.970868440231712]}},{"type":"Feature","properties":{"NAME":"鄂托克旗","QUHUADAIMA":"150624","Location":2,"Alignment":2},"geometry":{"type":"Point","coordinates":[108.10579640415084,39.222227333504755]}},{"type":"Feature","properties":{"NAME":"乌审旗","QUHUADAIMA":"150626","Location":2,"Alignment":2},"geometry":{"type":"Point","coordinates":[108.97149583965927,38.72500892441618]}},{"type":"Feature","properties":{"NAME":"鄂托克前旗","QUHUADAIMA":"150623","Location":6,"Alignment":1},"geometry":{"type":"Point","coordinates":[107.56409896913687,38.36087009805717]}},{"type":"Feature","properties":{"NAME":"康巴什区","QUHUADAIMA":"150603","Location":2,"Alignment":2},"geometry":{"type":"Point","coordinates":[109.98398663934552,39.737856593522707]}},{"type":"Feature","properties":{"NAME":"东胜区","QUHUADAIMA":"150602","Location":4,"Alignment":3},"geometry":{"type":"Point","coordinates":[110.09310347420468,39.94967973347935]}}]}