{"type":"FeatureCollection","name":"点","features":[{"type":"Feature","properties":{"NAME":"新宾满族自治县","QUHUADAIMA":"210422","Location":8,"Alignment":2},"geometry":{"type":"Point","coordinates":[125.15917380586001,41.8581319656027]}},{"type":"Feature","properties":{"NAME":"抚顺县","QUHUADAIMA":"210421","Location":1,"Alignment":3},"geometry":{"type":"Point","coordinates":[124.04314738282173,42.006801201534444]}},{"type":"Feature","properties":{"NAME":"望花区","QUHUADAIMA":"210404","Location":8,"Alignment":2},"geometry":{"type":"Point","coordinates":[123.90004427231669,41.983011593350653]}},{"type":"Feature","properties":{"NAME":"东洲区","QUHUADAIMA":"210403","Location":6,"Alignment":1},"geometry":{"type":"Point","coordinates":[124.16236069889466,41.977158914402985]}},{"type":"Feature","properties":{"NAME":"顺城区","QUHUADAIMA":"210411","Location":3,"Alignment":1},"geometry":{"type":"Point","coordinates":[124.0721446952592,42.010798964404465]}},{"type":"Feature","properties":{"NAME":"新抚区","QUHUADAIMA":"210402","Location":8,"Alignment":2},"geometry":{"type":"Point","coordinates":[124.03248170593855,41.989641558283893]}},{"type":"Feature","properties":{"NAME":"清原满族自治县","QUHUADAIMA":"210423","Location":6,"Alignment":1},"geometry":{"type":"Point","coordinates":[125.04826243382864,42.226710800487858]}}]}