{"type":"FeatureCollection","name":"点","features":[{"type":"Feature","properties":{"NAME":"桓仁满族自治县","QUHUADAIMA":"210522","Location":6,"Alignment":1},"geometry":{"type":"Point","coordinates":[125.47852683201167,41.398469432339567]}},{"type":"Feature","properties":{"NAME":"本溪满族自治县","QUHUADAIMA":"210521","Location":6,"Alignment":1},"geometry":{"type":"Point","coordinates":[124.24610311254681,41.430078831159804]}},{"type":"Feature","properties":{"NAME":"明山区","QUHUADAIMA":"210504","Location":6,"Alignment":1},"geometry":{"type":"Point","coordinates":[123.93663896213354,41.431289152882705]}},{"type":"Feature","properties":{"NAME":"溪湖区","QUHUADAIMA":"210503","Location":4,"Alignment":3},"geometry":{"type":"Point","coordinates":[123.88770617926188,41.455265807518877]}},{"type":"Feature","properties":{"NAME":"南芬区","QUHUADAIMA":"210505","Location":6,"Alignment":1},"geometry":{"type":"Point","coordinates":[123.86726374127541,41.225388430658107]}},{"type":"Feature","properties":{"NAME":"平山区","QUHUADAIMA":"210502","Location":8,"Alignment":2},"geometry":{"type":"Point","coordinates":[123.88473253672669,41.425993551474996]}}]}