{"type":"FeatureCollection","name":"点","features":[{"type":"Feature","properties":{"NAME":"凤城市","QUHUADAIMA":"210682","Location":6,"Alignment":1},"geometry":{"type":"Point","coordinates":[124.1896610406984,40.588630596767572]}},{"type":"Feature","properties":{"NAME":"东港市","QUHUADAIMA":"210681","Location":4,"Alignment":3},"geometry":{"type":"Point","coordinates":[124.27225546002306,39.991913917153752]}},{"type":"Feature","properties":{"NAME":"宽甸满族自治县","QUHUADAIMA":"210624","Location":6,"Alignment":1},"geometry":{"type":"Point","coordinates":[124.90882936733831,40.861139005206113]}},{"type":"Feature","properties":{"NAME":"振安区","QUHUADAIMA":"210604","Location":2,"Alignment":2},"geometry":{"type":"Point","coordinates":[124.54748540175235,40.288567112193689]}},{"type":"Feature","properties":{"NAME":"元宝区","QUHUADAIMA":"210602","Location":4,"Alignment":3},"geometry":{"type":"Point","coordinates":[124.51883646562713,40.262758013489041]}},{"type":"Feature","properties":{"NAME":"振兴区","QUHUADAIMA":"210603","Location":7,"Alignment":3},"geometry":{"type":"Point","coordinates":[124.48208725165844,40.232125984762931]}}]}