{"type":"FeatureCollection","name":"点","features":[{"type":"Feature","properties":{"NAME":"舒兰市","QUHUADAIMA":"220283","Location":6,"Alignment":1},"geometry":{"type":"Point","coordinates":[127.0713456125366,44.535210799966549]}},{"type":"Feature","properties":{"NAME":"蛟河市","QUHUADAIMA":"220281","Location":6,"Alignment":1},"geometry":{"type":"Point","coordinates":[127.46591056939771,43.85303224200878]}},{"type":"Feature","properties":{"NAME":"桦甸市","QUHUADAIMA":"220282","Location":6,"Alignment":1},"geometry":{"type":"Point","coordinates":[126.86438482568458,43.094621577157852]}},{"type":"Feature","properties":{"NAME":"磐石市","QUHUADAIMA":"220284","Location":6,"Alignment":1},"geometry":{"type":"Point","coordinates":[126.18488893976397,43.068859198707692]}},{"type":"Feature","properties":{"NAME":"永吉县","QUHUADAIMA":"220221","Location":6,"Alignment":1},"geometry":{"type":"Point","coordinates":[126.62271969933913,43.791013294337944]}},{"type":"Feature","properties":{"NAME":"昌邑区","QUHUADAIMA":"220202","Location":4,"Alignment":3},"geometry":{"type":"Point","coordinates":[126.69767924414975,44.009159909553006]}},{"type":"Feature","properties":{"NAME":"龙潭区","QUHUADAIMA":"220203","Location":2,"Alignment":4},"geometry":{"type":"Point","coordinates":[126.68412417944869,44.037477364346358]}},{"type":"Feature","properties":{"NAME":"船营区","QUHUADAIMA":"220204","Location":4,"Alignment":3},"geometry":{"type":"Point","coordinates":[126.66359689994685,43.9607345202387]}},{"type":"Feature","properties":{"NAME":"丰满区","QUHUADAIMA":"220211","Location":9,"Alignment":1},"geometry":{"type":"Point","coordinates":[126.68447803467258,43.947811442514144]}}]}