{"type":"FeatureCollection","name":"点","features":[{"type":"Feature","properties":{"NAME":"大安市","QUHUADAIMA":"220882","Location":1,"Alignment":3},"geometry":{"type":"Point","coordinates":[124.41365726828239,45.630059773629888]}},{"type":"Feature","properties":{"NAME":"洮南市","QUHUADAIMA":"220881","Location":6,"Alignment":1},"geometry":{"type":"Point","coordinates":[122.90766283376452,45.463601461147526]}},{"type":"Feature","properties":{"NAME":"镇赉县","QUHUADAIMA":"220821","Location":6,"Alignment":1},"geometry":{"type":"Point","coordinates":[123.32435546632746,45.974620775460245]}},{"type":"Feature","properties":{"NAME":"通榆县","QUHUADAIMA":"220822","Location":6,"Alignment":1},"geometry":{"type":"Point","coordinates":[123.20624081436083,44.936470964669027]}},{"type":"Feature","properties":{"NAME":"洮北区","QUHUADAIMA":"220802","Location":6,"Alignment":1},"geometry":{"type":"Point","coordinates":[122.96829975900849,45.744958594509093]}}]}