{"type":"FeatureCollection","name":"点","features":[{"type":"Feature","properties":{"NAME":"密山市","QUHUADAIMA":"230382","Location":6,"Alignment":1},"geometry":{"type":"Point","coordinates":[131.99259660677225,45.670419993085908]}},{"type":"Feature","properties":{"NAME":"虎林市","QUHUADAIMA":"230381","Location":6,"Alignment":1},"geometry":{"type":"Point","coordinates":[133.09748155363619,45.895084258874014]}},{"type":"Feature","properties":{"NAME":"鸡东县","QUHUADAIMA":"230321","Location":6,"Alignment":1},"geometry":{"type":"Point","coordinates":[131.26713536028245,45.378023681211268]}},{"type":"Feature","properties":{"NAME":"麻山区","QUHUADAIMA":"230307","Location":8,"Alignment":2},"geometry":{"type":"Point","coordinates":[130.65831940371407,45.334041095951562]}},{"type":"Feature","properties":{"NAME":"滴道区","QUHUADAIMA":"230304","Location":2,"Alignment":2},"geometry":{"type":"Point","coordinates":[130.90595471718586,45.489768136882169]}},{"type":"Feature","properties":{"NAME":"恒山区","QUHUADAIMA":"230303","Location":8,"Alignment":2},"geometry":{"type":"Point","coordinates":[131.03502416670852,45.343968544581145]}},{"type":"Feature","properties":{"NAME":"城子河区","QUHUADAIMA":"230306","Location":2,"Alignment":2},"geometry":{"type":"Point","coordinates":[131.1124969219874,45.4706037677064]}},{"type":"Feature","properties":{"NAME":"梨树区","QUHUADAIMA":"230305","Location":6,"Alignment":1},"geometry":{"type":"Point","coordinates":[130.81942790061729,45.22086678262238]}},{"type":"Feature","properties":{"NAME":"鸡冠区","QUHUADAIMA":"230302","Location":8,"Alignment":2},"geometry":{"type":"Point","coordinates":[131.07881453098116,45.425820991732557]}}]}