{"type":"FeatureCollection","name":"点","features":[{"type":"Feature","properties":{"NAME":"宁安市","QUHUADAIMA":"231084","Location":6,"Alignment":1},"geometry":{"type":"Point","coordinates":[129.59100452300004,44.474396361760007]}},{"type":"Feature","properties":{"NAME":"海林市","QUHUADAIMA":"231083","Location":7,"Alignment":3},"geometry":{"type":"Point","coordinates":[129.51105287523251,44.705411558066729]}},{"type":"Feature","properties":{"NAME":"穆棱市","QUHUADAIMA":"231085","Location":6,"Alignment":1},"geometry":{"type":"Point","coordinates":[130.65687550891056,45.050570052455427]}},{"type":"Feature","properties":{"NAME":"绥芬河市","QUHUADAIMA":"231081","Location":4,"Alignment":3},"geometry":{"type":"Point","coordinates":[131.28075159488961,44.5214122891197]}},{"type":"Feature","properties":{"NAME":"东宁市","QUHUADAIMA":"231086","Location":4,"Alignment":3},"geometry":{"type":"Point","coordinates":[131.24427411435798,44.188412152340682]}},{"type":"Feature","properties":{"NAME":"林口县","QUHUADAIMA":"231025","Location":6,"Alignment":1},"geometry":{"type":"Point","coordinates":[130.39085274567734,45.417514000313133]}},{"type":"Feature","properties":{"NAME":"西安区","QUHUADAIMA":"231005","Location":7,"Alignment":3},"geometry":{"type":"Point","coordinates":[129.73006806235284,44.696089473535665]}},{"type":"Feature","properties":{"NAME":"爱民区","QUHUADAIMA":"231004","Location":1,"Alignment":3},"geometry":{"type":"Point","coordinates":[129.7174277575711,44.719548750646922]}},{"type":"Feature","properties":{"NAME":"东安区","QUHUADAIMA":"231002","Location":9,"Alignment":1},"geometry":{"type":"Point","coordinates":[129.74985086277277,44.706018863286808]}},{"type":"Feature","properties":{"NAME":"阳明区","QUHUADAIMA":"231003","Location":3,"Alignment":1},"geometry":{"type":"Point","coordinates":[129.75868190077264,44.721535539478296]}}]}