{"type":"FeatureCollection","name":"点","features":[{"type":"Feature","properties":{"NAME":"新沂市","QUHUADAIMA":"320381","Location":6,"Alignment":1},"geometry":{"type":"Point","coordinates":[118.47489093469631,34.50878063570331]}},{"type":"Feature","properties":{"NAME":"邳州市","QUHUADAIMA":"320382","Location":6,"Alignment":1},"geometry":{"type":"Point","coordinates":[118.07991960202703,34.444239136557556]}},{"type":"Feature","properties":{"NAME":"丰县","QUHUADAIMA":"320321","Location":8,"Alignment":2},"geometry":{"type":"Point","coordinates":[116.72147330042887,34.825590091008479]}},{"type":"Feature","properties":{"NAME":"沛县","QUHUADAIMA":"320322","Location":8,"Alignment":2},"geometry":{"type":"Point","coordinates":[117.06386975745318,34.872565623545157]}},{"type":"Feature","properties":{"NAME":"睢宁县","QUHUADAIMA":"320324","Location":6,"Alignment":1},"geometry":{"type":"Point","coordinates":[118.07284304152262,34.029365384351557]}},{"type":"Feature","properties":{"NAME":"泉山区","QUHUADAIMA":"320311","Location":4,"Alignment":3},"geometry":{"type":"Point","coordinates":[117.31949317064007,34.373809229110961]}},{"type":"Feature","properties":{"NAME":"鼓楼区","QUHUADAIMA":"320302","Location":2,"Alignment":2},"geometry":{"type":"Point","coordinates":[117.31616370205981,34.415984733601086]}},{"type":"Feature","properties":{"NAME":"云龙区","QUHUADAIMA":"320303","Location":6,"Alignment":1},"geometry":{"type":"Point","coordinates":[117.35065578620828,34.380506373299667]}},{"type":"Feature","properties":{"NAME":"贾汪区","QUHUADAIMA":"320305","Location":6,"Alignment":1},"geometry":{"type":"Point","coordinates":[117.5675073545714,34.563046306370047]}},{"type":"Feature","properties":{"NAME":"铜山区","QUHUADAIMA":"320312","Location":6,"Alignment":1},"geometry":{"type":"Point","coordinates":[117.30761784122269,34.301649669280742]}}]}