{"type":"FeatureCollection","name":"点","features":[{"type":"Feature","properties":{"NAME":"昆山市","QUHUADAIMA":"320583","Location":6,"Alignment":1},"geometry":{"type":"Point","coordinates":[121.08086334768768,31.511978092885965]}},{"type":"Feature","properties":{"NAME":"太仓市","QUHUADAIMA":"320585","Location":2,"Alignment":2},"geometry":{"type":"Point","coordinates":[121.22954035312702,31.577067115523352]}},{"type":"Feature","properties":{"NAME":"常熟市","QUHUADAIMA":"320581","Location":6,"Alignment":1},"geometry":{"type":"Point","coordinates":[120.86837930435561,31.772679540348058]}},{"type":"Feature","properties":{"NAME":"张家港市","QUHUADAIMA":"320582","Location":6,"Alignment":1},"geometry":{"type":"Point","coordinates":[120.669080222723,31.99675184011554]}},{"type":"Feature","properties":{"NAME":"虎丘区","QUHUADAIMA":"320505","Location":4,"Alignment":3},"geometry":{"type":"Point","coordinates":[120.6962209931761,31.42710101102319]}},{"type":"Feature","properties":{"NAME":"吴中区","QUHUADAIMA":"320506","Location":6,"Alignment":1},"geometry":{"type":"Point","coordinates":[120.7551076678559,31.3949734421827]}},{"type":"Feature","properties":{"NAME":"相城区","QUHUADAIMA":"320507","Location":6,"Alignment":1},"geometry":{"type":"Point","coordinates":[120.74613687199914,31.49423618937367]}},{"type":"Feature","properties":{"NAME":"姑苏区","QUHUADAIMA":"320508","Location":6,"Alignment":1},"geometry":{"type":"Point","coordinates":[120.74048893479535,31.467424768769607]}},{"type":"Feature","properties":{"NAME":"吴江区","QUHUADAIMA":"320509","Location":6,"Alignment":1},"geometry":{"type":"Point","coordinates":[120.76730367737879,31.273381712116027]}}]}