{"type":"FeatureCollection","name":"点","features":[{"type":"Feature","properties":{"NAME":"如皋市","QUHUADAIMA":"320682","Location":6,"Alignment":1},"geometry":{"type":"Point","coordinates":[120.68883020549077,32.507687974860559]}},{"type":"Feature","properties":{"NAME":"启东市","QUHUADAIMA":"320681","Location":6,"Alignment":1},"geometry":{"type":"Point","coordinates":[121.78408148553855,31.9392738150081]}},{"type":"Feature","properties":{"NAME":"海门市","QUHUADAIMA":"320684","Location":6,"Alignment":1},"geometry":{"type":"Point","coordinates":[121.29480211863688,32.023976938758409]}},{"type":"Feature","properties":{"NAME":"如东县","QUHUADAIMA":"320623","Location":6,"Alignment":1},"geometry":{"type":"Point","coordinates":[121.30953930124369,32.445028663513952]}},{"type":"Feature","properties":{"NAME":"海安市","QUHUADAIMA":"320685","Location":6,"Alignment":1},"geometry":{"type":"Point","coordinates":[120.5808190859927,32.672114845033256]}},{"type":"Feature","properties":{"NAME":"港闸区","QUHUADAIMA":"320611","Location":3,"Alignment":1},"geometry":{"type":"Point","coordinates":[120.94069119941958,32.162239399889444]}},{"type":"Feature","properties":{"NAME":"崇川区","QUHUADAIMA":"320602","Location":6,"Alignment":1},"geometry":{"type":"Point","coordinates":[120.98678372283311,32.133655553712906]}},{"type":"Feature","properties":{"NAME":"通州区","QUHUADAIMA":"320612","Location":6,"Alignment":1},"geometry":{"type":"Point","coordinates":[121.19991694409366,32.210760271349443]}}]}