{"type":"FeatureCollection","name":"点","features":[{"type":"Feature","properties":{"NAME":"灌南县","QUHUADAIMA":"320724","Location":6,"Alignment":1},"geometry":{"type":"Point","coordinates":[119.46151980009992,34.221522986023061]}},{"type":"Feature","properties":{"NAME":"灌云县","QUHUADAIMA":"320723","Location":4,"Alignment":3},"geometry":{"type":"Point","coordinates":[119.37856256248774,34.4183216625506]}},{"type":"Feature","properties":{"NAME":"东海县","QUHUADAIMA":"320722","Location":6,"Alignment":1},"geometry":{"type":"Point","coordinates":[118.90395773748161,34.657541572450818]}},{"type":"Feature","properties":{"NAME":"海州区","QUHUADAIMA":"320706","Location":6,"Alignment":1},"geometry":{"type":"Point","coordinates":[119.29971256747967,34.735858727324462]}},{"type":"Feature","properties":{"NAME":"连云区","QUHUADAIMA":"320703","Location":8,"Alignment":2},"geometry":{"type":"Point","coordinates":[119.48903642504452,34.871568461687545]}},{"type":"Feature","properties":{"NAME":"赣榆区","QUHUADAIMA":"320707","Location":1,"Alignment":3},"geometry":{"type":"Point","coordinates":[119.24829243309979,34.971976929791936]}}]}