{"type":"FeatureCollection","name":"点","features":[{"type":"Feature","properties":{"NAME":"金湖县","QUHUADAIMA":"320831","Location":6,"Alignment":1},"geometry":{"type":"Point","coordinates":[119.14782783165647,33.151299178649353]}},{"type":"Feature","properties":{"NAME":"洪泽区","QUHUADAIMA":"320813","Location":6,"Alignment":1},"geometry":{"type":"Point","coordinates":[118.99246212365283,33.427971333133989]}},{"type":"Feature","properties":{"NAME":"涟水县","QUHUADAIMA":"320826","Location":6,"Alignment":1},"geometry":{"type":"Point","coordinates":[119.39565706580093,33.902334580308654]}},{"type":"Feature","properties":{"NAME":"盱眙县","QUHUADAIMA":"320830","Location":6,"Alignment":1},"geometry":{"type":"Point","coordinates":[118.61552489387655,33.141324769171675]}},{"type":"Feature","properties":{"NAME":"清江浦区","QUHUADAIMA":"320812","Location":6,"Alignment":1},"geometry":{"type":"Point","coordinates":[119.14736789066471,33.68246882492047]}},{"type":"Feature","properties":{"NAME":"淮阴区","QUHUADAIMA":"320804","Location":2,"Alignment":2},"geometry":{"type":"Point","coordinates":[119.14775031743874,33.762976998246167]}},{"type":"Feature","properties":{"NAME":"淮安区","QUHUADAIMA":"320803","Location":6,"Alignment":1},"geometry":{"type":"Point","coordinates":[119.26858730627652,33.637648034178305]}}]}