{"type":"FeatureCollection","name":"点","features":[{"type":"Feature","properties":{"NAME":"仪征市","QUHUADAIMA":"321081","Location":6,"Alignment":1},"geometry":{"type":"Point","coordinates":[119.30752408249299,32.396135961605786]}},{"type":"Feature","properties":{"NAME":"高邮市","QUHUADAIMA":"321084","Location":6,"Alignment":1},"geometry":{"type":"Point","coordinates":[119.58951740207618,32.897669623828335]}},{"type":"Feature","properties":{"NAME":"宝应县","QUHUADAIMA":"321023","Location":6,"Alignment":1},"geometry":{"type":"Point","coordinates":[119.43855764877246,33.364245801747472]}},{"type":"Feature","properties":{"NAME":"广陵区","QUHUADAIMA":"321002","Location":2,"Alignment":2},"geometry":{"type":"Point","coordinates":[119.55435533336325,32.52543836770527]}},{"type":"Feature","properties":{"NAME":"邗江区","QUHUADAIMA":"321003","Location":8,"Alignment":2},"geometry":{"type":"Point","coordinates":[119.52144878423964,32.50847570095479]}},{"type":"Feature","properties":{"NAME":"江都区","QUHUADAIMA":"321012","Location":6,"Alignment":1},"geometry":{"type":"Point","coordinates":[119.68517219435357,32.568111063585391]}}]}