{"type":"FeatureCollection","name":"点","features":[{"type":"Feature","properties":{"NAME":"临海市","QUHUADAIMA":"331082","Location":4,"Alignment":3},"geometry":{"type":"Point","coordinates":[121.2405343251281,28.978304729760247]}},{"type":"Feature","properties":{"NAME":"温岭市","QUHUADAIMA":"331081","Location":6,"Alignment":1},"geometry":{"type":"Point","coordinates":[121.49052631073248,28.499723451479774]}},{"type":"Feature","properties":{"NAME":"三门县","QUHUADAIMA":"331022","Location":6,"Alignment":1},"geometry":{"type":"Point","coordinates":[121.50314734485342,29.249157928239807]}},{"type":"Feature","properties":{"NAME":"天台县","QUHUADAIMA":"331023","Location":6,"Alignment":1},"geometry":{"type":"Point","coordinates":[121.15384996570374,29.269060607401073]}},{"type":"Feature","properties":{"NAME":"仙居县","QUHUADAIMA":"331024","Location":6,"Alignment":1},"geometry":{"type":"Point","coordinates":[120.86050171637919,28.991784763825518]}},{"type":"Feature","properties":{"NAME":"玉环市","QUHUADAIMA":"331083","Location":8,"Alignment":2},"geometry":{"type":"Point","coordinates":[121.35271692815284,28.266583660169179]}},{"type":"Feature","properties":{"NAME":"椒江区","QUHUADAIMA":"331002","Location":6,"Alignment":1},"geometry":{"type":"Point","coordinates":[121.56129820580846,28.80343226407]}},{"type":"Feature","properties":{"NAME":"路桥区","QUHUADAIMA":"331004","Location":8,"Alignment":2},"geometry":{"type":"Point","coordinates":[121.50626950585097,28.707623917853866]}},{"type":"Feature","properties":{"NAME":"黄岩区","QUHUADAIMA":"331003","Location":7,"Alignment":3},"geometry":{"type":"Point","coordinates":[121.38759135413571,28.777746150951689]}}]}