{"type":"FeatureCollection","name":"点","features":[{"type":"Feature","properties":{"NAME":"繁昌县","QUHUADAIMA":"340222","Location":6,"Alignment":1},"geometry":{"type":"Point","coordinates":[118.32110894758333,31.213637774980477]}},{"type":"Feature","properties":{"NAME":"无为县","QUHUADAIMA":"340225","Location":2,"Alignment":2},"geometry":{"type":"Point","coordinates":[118.04090272799854,31.443245474434242]}},{"type":"Feature","properties":{"NAME":"南陵县","QUHUADAIMA":"340223","Location":6,"Alignment":1},"geometry":{"type":"Point","coordinates":[118.4587723487703,31.053064054771056]}},{"type":"Feature","properties":{"NAME":"芜湖县","QUHUADAIMA":"340221","Location":6,"Alignment":1},"geometry":{"type":"Point","coordinates":[118.7008934860487,31.267575026722557]}},{"type":"Feature","properties":{"NAME":"三山区","QUHUADAIMA":"340208","Location":2,"Alignment":2},"geometry":{"type":"Point","coordinates":[118.39446317420669,31.347627881084435]}},{"type":"Feature","properties":{"NAME":"鸠江区","QUHUADAIMA":"340207","Location":6,"Alignment":1},"geometry":{"type":"Point","coordinates":[118.51407412625785,31.5033434785183]}},{"type":"Feature","properties":{"NAME":"镜湖区","QUHUADAIMA":"340202","Location":2,"Alignment":3},"geometry":{"type":"Point","coordinates":[118.50705282120936,31.471512748269191]}},{"type":"Feature","properties":{"NAME":"弋江区","QUHUADAIMA":"340203","Location":8,"Alignment":2},"geometry":{"type":"Point","coordinates":[118.49952308289812,31.439291191814672]}}]}