{"type":"FeatureCollection","name":"点","features":[{"type":"Feature","properties":{"NAME":"歙县","QUHUADAIMA":"341021","Location":6,"Alignment":1},"geometry":{"type":"Point","coordinates":[118.5626919760024,29.998494963761662]}},{"type":"Feature","properties":{"NAME":"黟县","QUHUADAIMA":"341023","Location":6,"Alignment":1},"geometry":{"type":"Point","coordinates":[118.06267247075918,30.058485970667615]}},{"type":"Feature","properties":{"NAME":"休宁县","QUHUADAIMA":"341022","Location":6,"Alignment":1},"geometry":{"type":"Point","coordinates":[118.30560944441791,29.913347027516203]}},{"type":"Feature","properties":{"NAME":"祁门县","QUHUADAIMA":"341024","Location":6,"Alignment":1},"geometry":{"type":"Point","coordinates":[117.84023564762009,29.987305210496888]}},{"type":"Feature","properties":{"NAME":"黄山区","QUHUADAIMA":"341003","Location":6,"Alignment":1},"geometry":{"type":"Point","coordinates":[118.25809607981789,30.426769893001179]}},{"type":"Feature","properties":{"NAME":"屯溪区","QUHUADAIMA":"341002","Location":1,"Alignment":3},"geometry":{"type":"Point","coordinates":[118.45090545016245,29.841489403644143]}},{"type":"Feature","properties":{"NAME":"徽州区","QUHUADAIMA":"341004","Location":5,"Alignment":2},"geometry":{"type":"Point","coordinates":[118.46571102990681,29.956947557137372]}}]}