{"type":"FeatureCollection","name":"点","features":[{"type":"Feature","properties":{"NAME":"天长市","QUHUADAIMA":"341181","Location":6,"Alignment":1},"geometry":{"type":"Point","coordinates":[119.1314658471386,32.818283518089906]}},{"type":"Feature","properties":{"NAME":"明光市","QUHUADAIMA":"341182","Location":6,"Alignment":1},"geometry":{"type":"Point","coordinates":[118.11328711124018,32.910293408621079]}},{"type":"Feature","properties":{"NAME":"凤阳县","QUHUADAIMA":"341126","Location":6,"Alignment":1},"geometry":{"type":"Point","coordinates":[117.68728281177286,32.997112989064512]}},{"type":"Feature","properties":{"NAME":"定远县","QUHUADAIMA":"341125","Location":6,"Alignment":1},"geometry":{"type":"Point","coordinates":[117.80370329452904,32.6552483547871]}},{"type":"Feature","properties":{"NAME":"来安县","QUHUADAIMA":"341122","Location":6,"Alignment":1},"geometry":{"type":"Point","coordinates":[118.55726490104256,32.58192823379256]}},{"type":"Feature","properties":{"NAME":"全椒县","QUHUADAIMA":"341124","Location":6,"Alignment":1},"geometry":{"type":"Point","coordinates":[118.39666067761148,32.22816785067581]}},{"type":"Feature","properties":{"NAME":"南谯区","QUHUADAIMA":"341103","Location":4,"Alignment":3},"geometry":{"type":"Point","coordinates":[118.43711510952146,32.450344792873182]}},{"type":"Feature","properties":{"NAME":"琅琊区","QUHUADAIMA":"341102","Location":6,"Alignment":1},"geometry":{"type":"Point","coordinates":[118.43323001176002,32.4315062462693]}}]}