{"type":"FeatureCollection","name":"点","features":[{"type":"Feature","properties":{"NAME":"界首市","QUHUADAIMA":"341282","Location":6,"Alignment":1},"geometry":{"type":"Point","coordinates":[115.47948672465681,33.390707493628064]}},{"type":"Feature","properties":{"NAME":"太和县","QUHUADAIMA":"341222","Location":6,"Alignment":1},"geometry":{"type":"Point","coordinates":[115.74374507672829,33.289120759592528]}},{"type":"Feature","properties":{"NAME":"临泉县","QUHUADAIMA":"341221","Location":8,"Alignment":2},"geometry":{"type":"Point","coordinates":[115.38269010779358,33.198517699452673]}},{"type":"Feature","properties":{"NAME":"颍上县","QUHUADAIMA":"341226","Location":6,"Alignment":1},"geometry":{"type":"Point","coordinates":[116.38789909390329,32.763447550368646]}},{"type":"Feature","properties":{"NAME":"阜南县","QUHUADAIMA":"341225","Location":6,"Alignment":1},"geometry":{"type":"Point","coordinates":[115.71215629432265,32.766449556109691]}},{"type":"Feature","properties":{"NAME":"颍泉区","QUHUADAIMA":"341204","Location":2,"Alignment":2},"geometry":{"type":"Point","coordinates":[115.92707929623323,33.061114114750353]}},{"type":"Feature","properties":{"NAME":"颍州区","QUHUADAIMA":"341202","Location":8,"Alignment":2},"geometry":{"type":"Point","coordinates":[115.92510358246649,33.0203124997789]}},{"type":"Feature","properties":{"NAME":"颍东区","QUHUADAIMA":"341203","Location":6,"Alignment":1},"geometry":{"type":"Point","coordinates":[115.98612793136869,33.051569653397692]}}]}