{"type":"FeatureCollection","name":"点","features":[{"type":"Feature","properties":{"NAME":"金寨县","QUHUADAIMA":"341524","Location":6,"Alignment":1},"geometry":{"type":"Point","coordinates":[116.04996739897064,31.844825108136913]}},{"type":"Feature","properties":{"NAME":"霍邱县","QUHUADAIMA":"341522","Location":6,"Alignment":1},"geometry":{"type":"Point","coordinates":[116.39365229423633,32.4663510779674]}},{"type":"Feature","properties":{"NAME":"霍山县","QUHUADAIMA":"341525","Location":6,"Alignment":1},"geometry":{"type":"Point","coordinates":[116.4588186897748,31.540089364843613]}},{"type":"Feature","properties":{"NAME":"舒城县","QUHUADAIMA":"341523","Location":6,"Alignment":1},"geometry":{"type":"Point","coordinates":[117.06726791375363,31.588858424796079]}},{"type":"Feature","properties":{"NAME":"金安区","QUHUADAIMA":"341502","Location":6,"Alignment":1},"geometry":{"type":"Point","coordinates":[116.63130664489258,31.888551600904965]}},{"type":"Feature","properties":{"NAME":"裕安区","QUHUADAIMA":"341503","Location":4,"Alignment":3},"geometry":{"type":"Point","coordinates":[116.60246507365741,31.877920460290817]}},{"type":"Feature","properties":{"NAME":"叶集区","QUHUADAIMA":"341504","Location":6,"Alignment":1},"geometry":{"type":"Point","coordinates":[116.04844903203833,31.993452750055891]}}]}