{"type":"FeatureCollection","name":"点","features":[{"type":"Feature","properties":{"NAME":"龙海市","QUHUADAIMA":"350681","Location":4,"Alignment":3},"geometry":{"type":"Point","coordinates":[117.94277632411695,24.580469360412685]}},{"type":"Feature","properties":{"NAME":"华安县","QUHUADAIMA":"350629","Location":6,"Alignment":1},"geometry":{"type":"Point","coordinates":[117.66392545140988,25.138287670904795]}},{"type":"Feature","properties":{"NAME":"长泰县","QUHUADAIMA":"350625","Location":6,"Alignment":1},"geometry":{"type":"Point","coordinates":[117.88281439130128,24.762374828857737]}},{"type":"Feature","properties":{"NAME":"南靖县","QUHUADAIMA":"350627","Location":6,"Alignment":1},"geometry":{"type":"Point","coordinates":[117.4911900682955,24.642164416481194]}},{"type":"Feature","properties":{"NAME":"平和县","QUHUADAIMA":"350628","Location":6,"Alignment":1},"geometry":{"type":"Point","coordinates":[117.43808130916828,24.49364153905119]}},{"type":"Feature","properties":{"NAME":"漳浦县","QUHUADAIMA":"350623","Location":6,"Alignment":1},"geometry":{"type":"Point","coordinates":[117.73770907463768,24.247833116735322]}},{"type":"Feature","properties":{"NAME":"东山县","QUHUADAIMA":"350626","Location":8,"Alignment":2},"geometry":{"type":"Point","coordinates":[117.55249969473768,23.82976855627664]}},{"type":"Feature","properties":{"NAME":"诏安县","QUHUADAIMA":"350624","Location":2,"Alignment":2},"geometry":{"type":"Point","coordinates":[117.30553340213243,23.843455862097272]}},{"type":"Feature","properties":{"NAME":"云霄县","QUHUADAIMA":"350622","Location":6,"Alignment":1},"geometry":{"type":"Point","coordinates":[117.46331834846039,24.088553883989324]}},{"type":"Feature","properties":{"NAME":"龙文区","QUHUADAIMA":"350603","Location":3,"Alignment":1},"geometry":{"type":"Point","coordinates":[117.84537410959668,24.643596752392764]}},{"type":"Feature","properties":{"NAME":"芗城区","QUHUADAIMA":"350602","Location":2,"Alignment":2},"geometry":{"type":"Point","coordinates":[117.77920928631194,24.640527633066252]}}]}