{"type":"FeatureCollection","name":"点","features":[{"type":"Feature","properties":{"NAME":"建瓯市","QUHUADAIMA":"350783","Location":4,"Alignment":3},"geometry":{"type":"Point","coordinates":[118.45016841796124,27.165646672636083]}},{"type":"Feature","properties":{"NAME":"邵武市","QUHUADAIMA":"350781","Location":4,"Alignment":3},"geometry":{"type":"Point","coordinates":[117.61527725503105,27.472010263717998]}},{"type":"Feature","properties":{"NAME":"武夷山市","QUHUADAIMA":"350782","Location":7,"Alignment":3},"geometry":{"type":"Point","coordinates":[118.15774940621351,27.886256869660951]}},{"type":"Feature","properties":{"NAME":"政和县","QUHUADAIMA":"350725","Location":2,"Alignment":2},"geometry":{"type":"Point","coordinates":[118.98031001684248,27.498281687736927]}},{"type":"Feature","properties":{"NAME":"松溪县","QUHUADAIMA":"350724","Location":1,"Alignment":3},"geometry":{"type":"Point","coordinates":[118.90667304607528,27.66172577094931]}},{"type":"Feature","properties":{"NAME":"浦城县","QUHUADAIMA":"350722","Location":6,"Alignment":1},"geometry":{"type":"Point","coordinates":[118.66151932677225,28.050512847908696]}},{"type":"Feature","properties":{"NAME":"光泽县","QUHUADAIMA":"350723","Location":5,"Alignment":2},"geometry":{"type":"Point","coordinates":[117.45666896567093,27.677327709353502]}},{"type":"Feature","properties":{"NAME":"顺昌县","QUHUADAIMA":"350721","Location":5,"Alignment":1},"geometry":{"type":"Point","coordinates":[117.93213208124313,26.927071806399685]}},{"type":"Feature","properties":{"NAME":"延平区","QUHUADAIMA":"350702","Location":6,"Alignment":1},"geometry":{"type":"Point","coordinates":[118.30267759669297,26.767821758019647]}},{"type":"Feature","properties":{"NAME":"建阳区","QUHUADAIMA":"350703","Location":6,"Alignment":1},"geometry":{"type":"Point","coordinates":[118.24424298880325,27.462042394006396]}}]}