{"type":"FeatureCollection","name":"点","features":[{"type":"Feature","properties":{"NAME":"漳平市","QUHUADAIMA":"350881","Location":5,"Alignment":2},"geometry":{"type":"Point","coordinates":[117.53982626709933,25.421844065016511]}},{"type":"Feature","properties":{"NAME":"连城县","QUHUADAIMA":"350825","Location":6,"Alignment":1},"geometry":{"type":"Point","coordinates":[116.88157925125482,25.841341511676745]}},{"type":"Feature","properties":{"NAME":"长汀县","QUHUADAIMA":"350821","Location":6,"Alignment":1},"geometry":{"type":"Point","coordinates":[116.48235644691525,25.96420681946385]}},{"type":"Feature","properties":{"NAME":"上杭县","QUHUADAIMA":"350823","Location":6,"Alignment":1},"geometry":{"type":"Point","coordinates":[116.53924389673298,25.184968628293273]}},{"type":"Feature","properties":{"NAME":"武平县","QUHUADAIMA":"350824","Location":6,"Alignment":1},"geometry":{"type":"Point","coordinates":[116.22646715539582,25.226208610331973]}},{"type":"Feature","properties":{"NAME":"永定区","QUHUADAIMA":"350803","Location":6,"Alignment":1},"geometry":{"type":"Point","coordinates":[116.85445611193356,24.85949459047859]}},{"type":"Feature","properties":{"NAME":"新罗区","QUHUADAIMA":"350802","Location":6,"Alignment":1},"geometry":{"type":"Point","coordinates":[117.15827859410214,25.229476485349245]}}]}