{"type":"FeatureCollection","name":"点","features":[{"type":"Feature","properties":{"NAME":"芦溪县","QUHUADAIMA":"360323","Location":6,"Alignment":1},"geometry":{"type":"Point","coordinates":[114.1647936617919,27.765647698501649]}},{"type":"Feature","properties":{"NAME":"莲花县","QUHUADAIMA":"360321","Location":2,"Alignment":2},"geometry":{"type":"Point","coordinates":[114.08386804379845,27.260923587380919]}},{"type":"Feature","properties":{"NAME":"上栗县","QUHUADAIMA":"360322","Location":6,"Alignment":1},"geometry":{"type":"Point","coordinates":[113.91720354850638,28.004011040845104]}},{"type":"Feature","properties":{"NAME":"湘东区","QUHUADAIMA":"360313","Location":4,"Alignment":3},"geometry":{"type":"Point","coordinates":[113.86588907178721,27.776237777954218]}},{"type":"Feature","properties":{"NAME":"安源区","QUHUADAIMA":"360302","Location":6,"Alignment":1},"geometry":{"type":"Point","coordinates":[113.99624959784991,27.746616447660855]}}]}