{"type":"FeatureCollection","name":"点","features":[{"type":"Feature","properties":{"NAME":"庐山市","QUHUADAIMA":"360483","Location":4,"Alignment":3},"geometry":{"type":"Point","coordinates":[116.16688253907573,29.585349982140251]}},{"type":"Feature","properties":{"NAME":"瑞昌市","QUHUADAIMA":"360481","Location":4,"Alignment":3},"geometry":{"type":"Point","coordinates":[115.80515404582266,29.806255262083187]}},{"type":"Feature","properties":{"NAME":"共青城市","QUHUADAIMA":"360482","Location":8,"Alignment":2},"geometry":{"type":"Point","coordinates":[115.94062761141848,29.38126059751643]}},{"type":"Feature","properties":{"NAME":"永修县","QUHUADAIMA":"360425","Location":4,"Alignment":3},"geometry":{"type":"Point","coordinates":[115.93389972163948,29.15673284585608]}},{"type":"Feature","properties":{"NAME":"都昌县","QUHUADAIMA":"360428","Location":6,"Alignment":1},"geometry":{"type":"Point","coordinates":[116.31591485332555,29.394965125801271]}},{"type":"Feature","properties":{"NAME":"德安县","QUHUADAIMA":"360426","Location":1,"Alignment":3},"geometry":{"type":"Point","coordinates":[115.88687138307321,29.461108781574435]}},{"type":"Feature","properties":{"NAME":"柴桑区","QUHUADAIMA":"360404","Location":4,"Alignment":3},"geometry":{"type":"Point","coordinates":[116.03197741111461,29.739494229166663]}},{"type":"Feature","properties":{"NAME":"湖口县","QUHUADAIMA":"360429","Location":9,"Alignment":1},"geometry":{"type":"Point","coordinates":[116.34648447644656,29.873386350315265]}},{"type":"Feature","properties":{"NAME":"彭泽县","QUHUADAIMA":"360430","Location":8,"Alignment":2},"geometry":{"type":"Point","coordinates":[116.67229025881058,30.0286613349741]}},{"type":"Feature","properties":{"NAME":"修水县","QUHUADAIMA":"360424","Location":6,"Alignment":1},"geometry":{"type":"Point","coordinates":[114.66730390206709,29.15930154439954]}},{"type":"Feature","properties":{"NAME":"武宁县","QUHUADAIMA":"360423","Location":6,"Alignment":1},"geometry":{"type":"Point","coordinates":[115.22489216979156,29.391627093922178]}},{"type":"Feature","properties":{"NAME":"濂溪区","QUHUADAIMA":"360402","Location":8,"Alignment":2},"geometry":{"type":"Point","coordinates":[116.11532577999748,29.81075023689182]}},{"type":"Feature","properties":{"NAME":"浔阳区","QUHUADAIMA":"360403","Location":6,"Alignment":1},"geometry":{"type":"Point","coordinates":[116.115956413854,29.854226768361688]}}]}