{"type":"FeatureCollection","name":"点","features":[{"type":"Feature","properties":{"NAME":"章丘区","QUHUADAIMA":"370114","Location":6,"Alignment":1},"geometry":{"type":"Point","coordinates":[117.65376521204361,36.845643787768239]}},{"type":"Feature","properties":{"NAME":"商河县","QUHUADAIMA":"370126","Location":6,"Alignment":1},"geometry":{"type":"Point","coordinates":[117.27914356653604,37.435948040384694]}},{"type":"Feature","properties":{"NAME":"平阴县","QUHUADAIMA":"370124","Location":6,"Alignment":1},"geometry":{"type":"Point","coordinates":[116.57891608086972,36.414019750932169]}},{"type":"Feature","properties":{"NAME":"槐荫区","QUHUADAIMA":"370104","Location":4,"Alignment":3},"geometry":{"type":"Point","coordinates":[117.02528967713249,36.781327770192362]}},{"type":"Feature","properties":{"NAME":"莱芜区","QUHUADAIMA":"370116","Location":8,"Alignment":1},"geometry":{"type":"Point","coordinates":[117.78994238323053,36.332081920113396]}},{"type":"Feature","properties":{"NAME":"历城区","QUHUADAIMA":"370112","Location":3,"Alignment":1},"geometry":{"type":"Point","coordinates":[117.18672728601533,36.809343587358505]}},{"type":"Feature","properties":{"NAME":"历下区","QUHUADAIMA":"370102","Location":9,"Alignment":1},"geometry":{"type":"Point","coordinates":[117.19864599327757,36.795742448936331]}},{"type":"Feature","properties":{"NAME":"钢城区","QUHUADAIMA":"370117","Location":6,"Alignment":1},"geometry":{"type":"Point","coordinates":[117.93105025983792,36.200294993931863]}},{"type":"Feature","properties":{"NAME":"长清区","QUHUADAIMA":"370113","Location":6,"Alignment":1},"geometry":{"type":"Point","coordinates":[116.8562738096942,36.685806485911783]}},{"type":"Feature","properties":{"NAME":"天桥区","QUHUADAIMA":"370105","Location":2,"Alignment":2},"geometry":{"type":"Point","coordinates":[117.10908665915179,36.807375178929483]}},{"type":"Feature","properties":{"NAME":"市中区","QUHUADAIMA":"370103","Location":8,"Alignment":2},"geometry":{"type":"Point","coordinates":[117.12005806904202,36.780508431010041]}},{"type":"Feature","properties":{"NAME":"济阳区","QUHUADAIMA":"370115","Location":8,"Alignment":2},"geometry":{"type":"Point","coordinates":[117.34025330121929,37.1080315369195]}}]}