{"type":"FeatureCollection","name":"点","features":[{"type":"Feature","properties":{"NAME":"滕州市","QUHUADAIMA":"370481","Location":8,"Alignment":2},"geometry":{"type":"Point","coordinates":[117.28393385619236,35.213821881048183]}},{"type":"Feature","properties":{"NAME":"山亭区","QUHUADAIMA":"370406","Location":6,"Alignment":1},"geometry":{"type":"Point","coordinates":[117.58369328290759,35.211155761525077]}},{"type":"Feature","properties":{"NAME":"台儿庄区","QUHUADAIMA":"370405","Location":2,"Alignment":2},"geometry":{"type":"Point","coordinates":[117.86355793570444,34.688834872080456]}},{"type":"Feature","properties":{"NAME":"峄城区","QUHUADAIMA":"370404","Location":8,"Alignment":2},"geometry":{"type":"Point","coordinates":[117.71253663830574,34.893834210353404]}},{"type":"Feature","properties":{"NAME":"薛城区","QUHUADAIMA":"370403","Location":6,"Alignment":1},"geometry":{"type":"Point","coordinates":[117.37854351821936,34.9220661856992]}},{"type":"Feature","properties":{"NAME":"市中区","QUHUADAIMA":"370402","Location":6,"Alignment":1},"geometry":{"type":"Point","coordinates":[117.68843723699189,34.992558591542441]}}]}