{"type":"FeatureCollection","name":"点","features":[{"type":"Feature","properties":{"NAME":"曲阜市","QUHUADAIMA":"370881","Location":6,"Alignment":1},"geometry":{"type":"Point","coordinates":[117.1092881786256,35.727179321828643]}},{"type":"Feature","properties":{"NAME":"邹城市","QUHUADAIMA":"370883","Location":6,"Alignment":1},"geometry":{"type":"Point","coordinates":[117.08951446326614,35.532234105811312]}},{"type":"Feature","properties":{"NAME":"泗水县","QUHUADAIMA":"370831","Location":6,"Alignment":1},"geometry":{"type":"Point","coordinates":[117.40152610767571,35.784787543830966]}},{"type":"Feature","properties":{"NAME":"汶上县","QUHUADAIMA":"370830","Location":8,"Alignment":2},"geometry":{"type":"Point","coordinates":[116.61353691939817,35.854807426965436]}},{"type":"Feature","properties":{"NAME":"金乡县","QUHUADAIMA":"370828","Location":8,"Alignment":2},"geometry":{"type":"Point","coordinates":[116.43084660663971,35.196639915500526]}},{"type":"Feature","properties":{"NAME":"嘉祥县","QUHUADAIMA":"370829","Location":2,"Alignment":2},"geometry":{"type":"Point","coordinates":[116.46953969521533,35.531641770746894]}},{"type":"Feature","properties":{"NAME":"梁山县","QUHUADAIMA":"370832","Location":9,"Alignment":1},"geometry":{"type":"Point","coordinates":[116.21692214000541,35.93361227837849]}},{"type":"Feature","properties":{"NAME":"微山县","QUHUADAIMA":"370826","Location":8,"Alignment":2},"geometry":{"type":"Point","coordinates":[117.24571400923706,34.939497776802995]}},{"type":"Feature","properties":{"NAME":"鱼台县","QUHUADAIMA":"370827","Location":7,"Alignment":3},"geometry":{"type":"Point","coordinates":[116.77613188904319,35.128365435507824]}},{"type":"Feature","properties":{"NAME":"任城区","QUHUADAIMA":"370811","Location":6,"Alignment":1},"geometry":{"type":"Point","coordinates":[116.71812119462535,35.535254044691889]}},{"type":"Feature","properties":{"NAME":"兖州区","QUHUADAIMA":"370812","Location":2,"Alignment":2},"geometry":{"type":"Point","coordinates":[116.90220194857044,35.681759255918664]}}]}