{"type":"FeatureCollection","name":"点","features":[{"type":"Feature","properties":{"NAME":"汝州市","QUHUADAIMA":"410482","Location":6,"Alignment":1},"geometry":{"type":"Point","coordinates":[112.96717981688909,34.293060794512542]}},{"type":"Feature","properties":{"NAME":"舞钢市","QUHUADAIMA":"410481","Location":6,"Alignment":1},"geometry":{"type":"Point","coordinates":[113.64867003411015,33.425541993258449]}},{"type":"Feature","properties":{"NAME":"叶县","QUHUADAIMA":"410422","Location":6,"Alignment":1},"geometry":{"type":"Point","coordinates":[113.47724528854013,33.750903403303376]}},{"type":"Feature","properties":{"NAME":"鲁山县","QUHUADAIMA":"410423","Location":6,"Alignment":1},"geometry":{"type":"Point","coordinates":[113.02703999373838,33.869470464191515]}},{"type":"Feature","properties":{"NAME":"宝丰县","QUHUADAIMA":"410421","Location":6,"Alignment":1},"geometry":{"type":"Point","coordinates":[113.18980427203007,34.002578376544406]}},{"type":"Feature","properties":{"NAME":"郏县","QUHUADAIMA":"410425","Location":6,"Alignment":1},"geometry":{"type":"Point","coordinates":[113.33752633408018,34.101138570750976]}},{"type":"Feature","properties":{"NAME":"新华区","QUHUADAIMA":"410402","Location":4,"Alignment":3},"geometry":{"type":"Point","coordinates":[113.41790096010216,33.865607705941265]}},{"type":"Feature","properties":{"NAME":"卫东区","QUHUADAIMA":"410403","Location":6,"Alignment":1},"geometry":{"type":"Point","coordinates":[113.45968944256218,33.86784923982173]}},{"type":"Feature","properties":{"NAME":"石龙区","QUHUADAIMA":"410404","Location":6,"Alignment":1},"geometry":{"type":"Point","coordinates":[113.01823895802042,34.025735074780975]}},{"type":"Feature","properties":{"NAME":"湛河区","QUHUADAIMA":"410411","Location":8,"Alignment":2},"geometry":{"type":"Point","coordinates":[113.4277540837913,33.854069326310842]}}]}