{"type":"FeatureCollection","name":"点","features":[{"type":"Feature","properties":{"NAME":"长葛市","QUHUADAIMA":"411082","Location":6,"Alignment":1},"geometry":{"type":"Point","coordinates":[113.89748916661419,34.347847889670376]}},{"type":"Feature","properties":{"NAME":"禹州市","QUHUADAIMA":"411081","Location":6,"Alignment":1},"geometry":{"type":"Point","coordinates":[113.59513265611456,34.291290487581769]}},{"type":"Feature","properties":{"NAME":"鄢陵县","QUHUADAIMA":"411024","Location":6,"Alignment":1},"geometry":{"type":"Point","coordinates":[114.32203608415161,34.23151319156613]}},{"type":"Feature","properties":{"NAME":"建安区","QUHUADAIMA":"411003","Location":4,"Alignment":3},"geometry":{"type":"Point","coordinates":[113.9457124004812,34.254009596129713]}},{"type":"Feature","properties":{"NAME":"襄城县","QUHUADAIMA":"411025","Location":6,"Alignment":1},"geometry":{"type":"Point","coordinates":[113.60349612654305,33.979508918471019]}},{"type":"Feature","properties":{"NAME":"魏都区","QUHUADAIMA":"411002","Location":6,"Alignment":1},"geometry":{"type":"Point","coordinates":[113.94347902238165,34.156133876700764]}}]}