{"type":"FeatureCollection","name":"点","features":[{"type":"Feature","properties":{"NAME":"义马市","QUHUADAIMA":"411281","Location":6,"Alignment":1},"geometry":{"type":"Point","coordinates":[111.9961007817723,34.877719470040788]}},{"type":"Feature","properties":{"NAME":"灵宝市","QUHUADAIMA":"411282","Location":6,"Alignment":1},"geometry":{"type":"Point","coordinates":[110.99711943371266,34.65050029266321]}},{"type":"Feature","properties":{"NAME":"卢氏县","QUHUADAIMA":"411224","Location":6,"Alignment":1},"geometry":{"type":"Point","coordinates":[111.17145256044249,34.183610113633151]}},{"type":"Feature","properties":{"NAME":"渑池县","QUHUADAIMA":"411221","Location":4,"Alignment":3},"geometry":{"type":"Point","coordinates":[111.9039154752498,34.885997977924006]}},{"type":"Feature","properties":{"NAME":"湖滨区","QUHUADAIMA":"411202","Location":6,"Alignment":1},"geometry":{"type":"Point","coordinates":[111.32364847640523,34.90907545800345]}},{"type":"Feature","properties":{"NAME":"陕州区","QUHUADAIMA":"411203","Location":7,"Alignment":3},"geometry":{"type":"Point","coordinates":[111.22590764069523,34.849101641517876]}}]}