{"type":"FeatureCollection","name":"点","features":[{"type":"Feature","properties":{"NAME":"宜城市","QUHUADAIMA":"420684","Location":6,"Alignment":1},"geometry":{"type":"Point","coordinates":[112.38361999058571,31.837660018779786]}},{"type":"Feature","properties":{"NAME":"枣阳市","QUHUADAIMA":"420683","Location":6,"Alignment":1},"geometry":{"type":"Point","coordinates":[112.89006360102805,32.24008087354386]}},{"type":"Feature","properties":{"NAME":"老河口市","QUHUADAIMA":"420682","Location":6,"Alignment":1},"geometry":{"type":"Point","coordinates":[111.79929093466957,32.517331644059908]}},{"type":"Feature","properties":{"NAME":"谷城县","QUHUADAIMA":"420625","Location":6,"Alignment":1},"geometry":{"type":"Point","coordinates":[111.77550618707981,32.393403158954214]}},{"type":"Feature","properties":{"NAME":"南漳县","QUHUADAIMA":"420624","Location":6,"Alignment":1},"geometry":{"type":"Point","coordinates":[111.96502431728253,31.903991588805781]}},{"type":"Feature","properties":{"NAME":"保康县","QUHUADAIMA":"420626","Location":6,"Alignment":1},"geometry":{"type":"Point","coordinates":[111.38315691997934,32.009924054089211]}},{"type":"Feature","properties":{"NAME":"襄州区","QUHUADAIMA":"420607","Location":6,"Alignment":1},"geometry":{"type":"Point","coordinates":[112.32209547238001,32.215627464843841]}},{"type":"Feature","properties":{"NAME":"襄城区","QUHUADAIMA":"420602","Location":6,"Alignment":1},"geometry":{"type":"Point","coordinates":[112.24804308143962,32.142046473618024]}},{"type":"Feature","properties":{"NAME":"樊城区","QUHUADAIMA":"420606","Location":4,"Alignment":3},"geometry":{"type":"Point","coordinates":[112.25594403223742,32.172865595564758]}}]}