{"type":"FeatureCollection","name":"点","features":[{"type":"Feature","properties":{"NAME":"钟祥市","QUHUADAIMA":"420881","Location":6,"Alignment":1},"geometry":{"type":"Point","coordinates":[112.71400842501519,31.29657817987782]}},{"type":"Feature","properties":{"NAME":"京山市","QUHUADAIMA":"420882","Location":6,"Alignment":1},"geometry":{"type":"Point","coordinates":[113.24345643775352,31.151744958204539]}},{"type":"Feature","properties":{"NAME":"沙洋县","QUHUADAIMA":"420822","Location":4,"Alignment":3},"geometry":{"type":"Point","coordinates":[112.71830818833318,30.832617199506107]}},{"type":"Feature","properties":{"NAME":"东宝区","QUHUADAIMA":"420802","Location":2,"Alignment":2},"geometry":{"type":"Point","coordinates":[112.33158835881091,31.177157336670202]}},{"type":"Feature","properties":{"NAME":"掇刀区","QUHUADAIMA":"420804","Location":8,"Alignment":2},"geometry":{"type":"Point","coordinates":[112.32658341753594,31.121545910245572]}}]}