{"type":"FeatureCollection","name":"点","features":[{"type":"Feature","properties":{"NAME":"应城市","QUHUADAIMA":"420981","Location":6,"Alignment":1},"geometry":{"type":"Point","coordinates":[113.69192857557492,31.07871763149754]}},{"type":"Feature","properties":{"NAME":"汉川市","QUHUADAIMA":"420984","Location":6,"Alignment":1},"geometry":{"type":"Point","coordinates":[113.95909857620251,30.774817990335393]}},{"type":"Feature","properties":{"NAME":"安陆市","QUHUADAIMA":"420982","Location":6,"Alignment":1},"geometry":{"type":"Point","coordinates":[113.80949954331676,31.3899614824497]}},{"type":"Feature","properties":{"NAME":"大悟县","QUHUADAIMA":"420922","Location":6,"Alignment":1},"geometry":{"type":"Point","coordinates":[114.23730449796273,31.694457056962158]}},{"type":"Feature","properties":{"NAME":"云梦县","QUHUADAIMA":"420923","Location":6,"Alignment":1},"geometry":{"type":"Point","coordinates":[113.86585711436786,31.1569173592641]}},{"type":"Feature","properties":{"NAME":"孝昌县","QUHUADAIMA":"420921","Location":6,"Alignment":1},"geometry":{"type":"Point","coordinates":[114.10024745763583,31.387143081313127]}},{"type":"Feature","properties":{"NAME":"孝南区","QUHUADAIMA":"420902","Location":6,"Alignment":1},"geometry":{"type":"Point","coordinates":[114.03196075964868,31.048951466254533]}}]}