{"type":"FeatureCollection","name":"点","features":[{"type":"Feature","properties":{"NAME":"麻城市","QUHUADAIMA":"421181","Location":6,"Alignment":1},"geometry":{"type":"Point","coordinates":[115.12684993894828,31.30302100977935]}},{"type":"Feature","properties":{"NAME":"武穴市","QUHUADAIMA":"421182","Location":6,"Alignment":1},"geometry":{"type":"Point","coordinates":[115.68598422023622,29.977742325810784]}},{"type":"Feature","properties":{"NAME":"红安县","QUHUADAIMA":"421122","Location":2,"Alignment":2},"geometry":{"type":"Point","coordinates":[114.74280999252476,31.418141729403768]}},{"type":"Feature","properties":{"NAME":"黄梅县","QUHUADAIMA":"421127","Location":6,"Alignment":1},"geometry":{"type":"Point","coordinates":[116.07194028311508,30.204441764291154]}},{"type":"Feature","properties":{"NAME":"英山县","QUHUADAIMA":"421124","Location":6,"Alignment":1},"geometry":{"type":"Point","coordinates":[115.8016516360898,30.869061560112115]}},{"type":"Feature","properties":{"NAME":"团风县","QUHUADAIMA":"421121","Location":6,"Alignment":1},"geometry":{"type":"Point","coordinates":[114.99453542298333,30.776255339929616]}},{"type":"Feature","properties":{"NAME":"罗田县","QUHUADAIMA":"421123","Location":6,"Alignment":1},"geometry":{"type":"Point","coordinates":[115.52226201921862,30.914742080800771]}},{"type":"Feature","properties":{"NAME":"蕲春县","QUHUADAIMA":"421126","Location":6,"Alignment":1},"geometry":{"type":"Point","coordinates":[115.55988796255549,30.358109245118104]}},{"type":"Feature","properties":{"NAME":"浠水县","QUHUADAIMA":"421125","Location":6,"Alignment":1},"geometry":{"type":"Point","coordinates":[115.38584730247594,30.58614057696175]}},{"type":"Feature","properties":{"NAME":"黄州区","QUHUADAIMA":"421102","Location":3,"Alignment":1},"geometry":{"type":"Point","coordinates":[115.01750843385247,30.559111575931208]}}]}