{"type":"FeatureCollection","name":"点","features":[{"type":"Feature","properties":{"NAME":"利川市","QUHUADAIMA":"422802","Location":6,"Alignment":1},"geometry":{"type":"Point","coordinates":[109.06125013176884,30.429727729379092]}},{"type":"Feature","properties":{"NAME":"恩施市","QUHUADAIMA":"422801","Location":6,"Alignment":1},"geometry":{"type":"Point","coordinates":[109.60402666183239,30.399712308267862]}},{"type":"Feature","properties":{"NAME":"巴东县","QUHUADAIMA":"422823","Location":6,"Alignment":1},"geometry":{"type":"Point","coordinates":[110.45595274822679,31.169137662864951]}},{"type":"Feature","properties":{"NAME":"建始县","QUHUADAIMA":"422822","Location":6,"Alignment":1},"geometry":{"type":"Point","coordinates":[109.85434131543826,30.731871446216608]}},{"type":"Feature","properties":{"NAME":"鹤峰县","QUHUADAIMA":"422828","Location":6,"Alignment":1},"geometry":{"type":"Point","coordinates":[110.15726866516334,30.023980994803143]}},{"type":"Feature","properties":{"NAME":"来凤县","QUHUADAIMA":"422827","Location":4,"Alignment":3},"geometry":{"type":"Point","coordinates":[109.53067723186604,29.639509453032804]}},{"type":"Feature","properties":{"NAME":"咸丰县","QUHUADAIMA":"422826","Location":6,"Alignment":1},"geometry":{"type":"Point","coordinates":[109.26933265978505,29.811145219068106]}},{"type":"Feature","properties":{"NAME":"宣恩县","QUHUADAIMA":"422825","Location":6,"Alignment":1},"geometry":{"type":"Point","coordinates":[109.60873780250995,30.12229649293484]}}]}