{"type":"FeatureCollection","name":"点","features":[{"type":"Feature","properties":{"NAME":"浏阳市","QUHUADAIMA":"430181","Location":6,"Alignment":1},"geometry":{"type":"Point","coordinates":[113.75467185496179,28.275132877852446]}},{"type":"Feature","properties":{"NAME":"长沙县","QUHUADAIMA":"430121","Location":6,"Alignment":1},"geometry":{"type":"Point","coordinates":[113.20253193439731,28.379494019112936]}},{"type":"Feature","properties":{"NAME":"宁乡市","QUHUADAIMA":"430182","Location":4,"Alignment":3},"geometry":{"type":"Point","coordinates":[112.6794733682756,28.388946132870096]}},{"type":"Feature","properties":{"NAME":"天心区","QUHUADAIMA":"430103","Location":4,"Alignment":3},"geometry":{"type":"Point","coordinates":[113.11309620371647,28.259889807473495]}},{"type":"Feature","properties":{"NAME":"芙蓉区","QUHUADAIMA":"430102","Location":6,"Alignment":1},"geometry":{"type":"Point","coordinates":[113.15368051509761,28.320487726968338]}},{"type":"Feature","properties":{"NAME":"雨花区","QUHUADAIMA":"430111","Location":6,"Alignment":1},"geometry":{"type":"Point","coordinates":[113.15887304164576,28.268947876432481]}},{"type":"Feature","properties":{"NAME":"开福区","QUHUADAIMA":"430105","Location":2,"Alignment":2},"geometry":{"type":"Point","coordinates":[113.10908965815241,28.385539904121018]}},{"type":"Feature","properties":{"NAME":"岳麓区","QUHUADAIMA":"430104","Location":4,"Alignment":3},"geometry":{"type":"Point","coordinates":[113.05757108759876,28.366869454453994]}},{"type":"Feature","properties":{"NAME":"望城区","QUHUADAIMA":"430112","Location":2,"Alignment":2},"geometry":{"type":"Point","coordinates":[112.9413134345499,28.502118560197292]}}]}