{"type":"FeatureCollection","name":"点","features":[{"type":"Feature","properties":{"NAME":"醴陵市","QUHUADAIMA":"430281","Location":6,"Alignment":1},"geometry":{"type":"Point","coordinates":[113.6282677673252,27.784731014257808]}},{"type":"Feature","properties":{"NAME":"渌口区","QUHUADAIMA":"430212","Location":6,"Alignment":1},"geometry":{"type":"Point","coordinates":[113.26626710683696,27.838508746544584]}},{"type":"Feature","properties":{"NAME":"炎陵县","QUHUADAIMA":"430225","Location":6,"Alignment":1},"geometry":{"type":"Point","coordinates":[113.89621740956638,26.620673930569058]}},{"type":"Feature","properties":{"NAME":"茶陵县","QUHUADAIMA":"430224","Location":6,"Alignment":1},"geometry":{"type":"Point","coordinates":[113.6773991928366,26.925033582040609]}},{"type":"Feature","properties":{"NAME":"攸县","QUHUADAIMA":"430223","Location":6,"Alignment":1},"geometry":{"type":"Point","coordinates":[113.46810914129537,27.127448597590025]}},{"type":"Feature","properties":{"NAME":"石峰区","QUHUADAIMA":"430204","Location":2,"Alignment":2},"geometry":{"type":"Point","coordinates":[113.23373699590734,28.009724423937129]}},{"type":"Feature","properties":{"NAME":"荷塘区","QUHUADAIMA":"430202","Location":3,"Alignment":1},"geometry":{"type":"Point","coordinates":[113.29985005037975,27.993363956196518]}},{"type":"Feature","properties":{"NAME":"天元区","QUHUADAIMA":"430211","Location":8,"Alignment":2},"geometry":{"type":"Point","coordinates":[113.20812903232734,27.9616876021767]}},{"type":"Feature","properties":{"NAME":"芦淞区","QUHUADAIMA":"430203","Location":9,"Alignment":1},"geometry":{"type":"Point","coordinates":[113.27967489516242,27.956736102942344]}}]}