{"type":"FeatureCollection","name":"点","features":[{"type":"Feature","properties":{"NAME":"津市市","QUHUADAIMA":"430781","Location":8,"Alignment":2},"geometry":{"type":"Point","coordinates":[112.00473162298215,29.759515203279488]}},{"type":"Feature","properties":{"NAME":"安乡县","QUHUADAIMA":"430721","Location":2,"Alignment":2},"geometry":{"type":"Point","coordinates":[112.29424498243115,29.546413943809544]}},{"type":"Feature","properties":{"NAME":"临澧县","QUHUADAIMA":"430724","Location":8,"Alignment":2},"geometry":{"type":"Point","coordinates":[111.77253780731847,29.575024856667788]}},{"type":"Feature","properties":{"NAME":"石门县","QUHUADAIMA":"430726","Location":2,"Alignment":2},"geometry":{"type":"Point","coordinates":[111.50672400795865,29.720879821309055]}},{"type":"Feature","properties":{"NAME":"澧县","QUHUADAIMA":"430723","Location":2,"Alignment":2},"geometry":{"type":"Point","coordinates":[111.87814740959685,29.768261076180622]}},{"type":"Feature","properties":{"NAME":"汉寿县","QUHUADAIMA":"430722","Location":9,"Alignment":1},"geometry":{"type":"Point","coordinates":[112.09110067101624,29.038322653234268]}},{"type":"Feature","properties":{"NAME":"桃源县","QUHUADAIMA":"430725","Location":4,"Alignment":3},"geometry":{"type":"Point","coordinates":[111.61109134993856,29.035760188899477]}},{"type":"Feature","properties":{"NAME":"鼎城区","QUHUADAIMA":"430703","Location":8,"Alignment":2},"geometry":{"type":"Point","coordinates":[111.80623528468252,29.149270732540845]}},{"type":"Feature","properties":{"NAME":"武陵区","QUHUADAIMA":"430702","Location":2,"Alignment":2},"geometry":{"type":"Point","coordinates":[111.81762916438369,29.189269088966608]}}]}