{"type":"FeatureCollection","name":"点","features":[{"type":"Feature","properties":{"NAME":"四会市","QUHUADAIMA":"441284","Location":6,"Alignment":1},"geometry":{"type":"Point","coordinates":[112.85174696047488,23.458072298544039]}},{"type":"Feature","properties":{"NAME":"德庆县","QUHUADAIMA":"441226","Location":2,"Alignment":2},"geometry":{"type":"Point","coordinates":[111.89607897706841,23.272811704621272]}},{"type":"Feature","properties":{"NAME":"广宁县","QUHUADAIMA":"441223","Location":6,"Alignment":1},"geometry":{"type":"Point","coordinates":[112.56048027365145,23.76565469565146]}},{"type":"Feature","properties":{"NAME":"封开县","QUHUADAIMA":"441225","Location":6,"Alignment":1},"geometry":{"type":"Point","coordinates":[111.62618132087246,23.568503139009113]}},{"type":"Feature","properties":{"NAME":"怀集县","QUHUADAIMA":"441224","Location":6,"Alignment":1},"geometry":{"type":"Point","coordinates":[112.30793403053163,24.047881217797165]}},{"type":"Feature","properties":{"NAME":"鼎湖区","QUHUADAIMA":"441203","Location":6,"Alignment":1},"geometry":{"type":"Point","coordinates":[112.68987139915083,23.30275942133709]}},{"type":"Feature","properties":{"NAME":"端州区","QUHUADAIMA":"441202","Location":2,"Alignment":2},"geometry":{"type":"Point","coordinates":[112.60829647657278,23.182561693191492]}},{"type":"Feature","properties":{"NAME":"高要区","QUHUADAIMA":"441283","Location":8,"Alignment":2},"geometry":{"type":"Point","coordinates":[112.58008314634317,23.154775384473794]}}]}