{"type":"FeatureCollection","name":"点","features":[{"type":"Feature","properties":{"NAME":"龙川县","QUHUADAIMA":"441622","Location":6,"Alignment":1},"geometry":{"type":"Point","coordinates":[115.38286102134838,24.230054934198094]}},{"type":"Feature","properties":{"NAME":"连平县","QUHUADAIMA":"441623","Location":6,"Alignment":1},"geometry":{"type":"Point","coordinates":[114.61408462634449,24.501739773028692]}},{"type":"Feature","properties":{"NAME":"和平县","QUHUADAIMA":"441624","Location":6,"Alignment":1},"geometry":{"type":"Point","coordinates":[115.06153116173513,24.571680806496193]}},{"type":"Feature","properties":{"NAME":"紫金县","QUHUADAIMA":"441621","Location":6,"Alignment":1},"geometry":{"type":"Point","coordinates":[115.30466568997781,23.771437155369725]}},{"type":"Feature","properties":{"NAME":"东源县","QUHUADAIMA":"441625","Location":6,"Alignment":1},"geometry":{"type":"Point","coordinates":[114.89552621346304,23.945550871669045]}},{"type":"Feature","properties":{"NAME":"源城区","QUHUADAIMA":"441602","Location":1,"Alignment":3},"geometry":{"type":"Point","coordinates":[114.82900951119179,23.866525839307538]}}]}