{"type":"FeatureCollection","name":"点","features":[{"type":"Feature","properties":{"NAME":"马山县","QUHUADAIMA":"450124","Location":6,"Alignment":1},"geometry":{"type":"Point","coordinates":[108.30014388093308,23.844218270067945]}},{"type":"Feature","properties":{"NAME":"上林县","QUHUADAIMA":"450125","Location":6,"Alignment":1},"geometry":{"type":"Point","coordinates":[108.71635305806471,23.565630342245054]}},{"type":"Feature","properties":{"NAME":"宾阳县","QUHUADAIMA":"450126","Location":6,"Alignment":1},"geometry":{"type":"Point","coordinates":[108.93547911301513,23.347325037735409]}},{"type":"Feature","properties":{"NAME":"隆安县","QUHUADAIMA":"450123","Location":6,"Alignment":1},"geometry":{"type":"Point","coordinates":[107.8142757963968,23.307047598154558]}},{"type":"Feature","properties":{"NAME":"横县","QUHUADAIMA":"450127","Location":6,"Alignment":1},"geometry":{"type":"Point","coordinates":[109.39387839231162,22.815485734784506]}},{"type":"Feature","properties":{"NAME":"兴宁区","QUHUADAIMA":"450102","Location":3,"Alignment":1},"geometry":{"type":"Point","coordinates":[108.4921149130459,22.986527634740234]}},{"type":"Feature","properties":{"NAME":"青秀区","QUHUADAIMA":"450103","Location":2,"Alignment":2},"geometry":{"type":"Point","coordinates":[108.62110092672882,22.921305348996448]}},{"type":"Feature","properties":{"NAME":"良庆区","QUHUADAIMA":"450108","Location":7,"Alignment":1},"geometry":{"type":"Point","coordinates":[108.44573021801209,22.889319690788945]}},{"type":"Feature","properties":{"NAME":"西乡塘区","QUHUADAIMA":"450107","Location":4,"Alignment":3},"geometry":{"type":"Point","coordinates":[108.43915592191826,22.96583503561423]}},{"type":"Feature","properties":{"NAME":"邕宁区","QUHUADAIMA":"450109","Location":9,"Alignment":1},"geometry":{"type":"Point","coordinates":[108.6129378325188,22.883626780495629]}},{"type":"Feature","properties":{"NAME":"江南区","QUHUADAIMA":"450105","Location":7,"Alignment":3},"geometry":{"type":"Point","coordinates":[108.39868817315031,22.912626642376832]}},{"type":"Feature","properties":{"NAME":"武鸣区","QUHUADAIMA":"450110","Location":6,"Alignment":1},"geometry":{"type":"Point","coordinates":[108.3965216981661,23.288873171199906]}}]}