{"type":"FeatureCollection","name":"点","features":[{"type":"Feature","properties":{"NAME":"桂平市","QUHUADAIMA":"450881","Location":6,"Alignment":1},"geometry":{"type":"Point","coordinates":[110.20091758304238,23.522690411831892]}},{"type":"Feature","properties":{"NAME":"平南县","QUHUADAIMA":"450821","Location":8,"Alignment":2},"geometry":{"type":"Point","coordinates":[110.51662056237475,23.671316622121633]}},{"type":"Feature","properties":{"NAME":"港北区","QUHUADAIMA":"450802","Location":2,"Alignment":2},"geometry":{"type":"Point","coordinates":[109.70976132177067,23.245012166029053]}},{"type":"Feature","properties":{"NAME":"港南区","QUHUADAIMA":"450803","Location":8,"Alignment":2},"geometry":{"type":"Point","coordinates":[109.73379522298674,23.205026730861608]}},{"type":"Feature","properties":{"NAME":"覃塘区","QUHUADAIMA":"450804","Location":2,"Alignment":2},"geometry":{"type":"Point","coordinates":[109.54301757037668,23.26927510025304]}}]}