{"type":"FeatureCollection","name":"点","features":[{"type":"Feature","properties":{"NAME":"靖西市","QUHUADAIMA":"451081","Location":6,"Alignment":1},"geometry":{"type":"Point","coordinates":[106.54359266195144,23.263796611416915]}},{"type":"Feature","properties":{"NAME":"凌云县","QUHUADAIMA":"451027","Location":6,"Alignment":1},"geometry":{"type":"Point","coordinates":[106.69929712183682,24.478343480550684]}},{"type":"Feature","properties":{"NAME":"乐业县","QUHUADAIMA":"451028","Location":2,"Alignment":1},"geometry":{"type":"Point","coordinates":[106.68490653629044,24.919274219179723]}},{"type":"Feature","properties":{"NAME":"田林县","QUHUADAIMA":"451029","Location":6,"Alignment":1},"geometry":{"type":"Point","coordinates":[106.35473147665429,24.428930849363439]}},{"type":"Feature","properties":{"NAME":"西林县","QUHUADAIMA":"451030","Location":4,"Alignment":3},"geometry":{"type":"Point","coordinates":[105.22064829671896,24.621761059931]}},{"type":"Feature","properties":{"NAME":"隆林各族自治县","QUHUADAIMA":"451031","Location":7,"Alignment":1},"geometry":{"type":"Point","coordinates":[105.46387692310981,24.904296722272303]}},{"type":"Feature","properties":{"NAME":"田阳县","QUHUADAIMA":"451021","Location":6,"Alignment":1},"geometry":{"type":"Point","coordinates":[107.03462306085012,23.868301411697686]}},{"type":"Feature","properties":{"NAME":"田东县","QUHUADAIMA":"451022","Location":6,"Alignment":1},"geometry":{"type":"Point","coordinates":[107.24213671509864,23.730298350943297]}},{"type":"Feature","properties":{"NAME":"平果县","QUHUADAIMA":"451023","Location":6,"Alignment":1},"geometry":{"type":"Point","coordinates":[107.70335523399999,23.451347413779878]}},{"type":"Feature","properties":{"NAME":"德保县","QUHUADAIMA":"451024","Location":6,"Alignment":1},"geometry":{"type":"Point","coordinates":[106.74233330229072,23.458252354157256]}},{"type":"Feature","properties":{"NAME":"那坡县","QUHUADAIMA":"451026","Location":6,"Alignment":1},"geometry":{"type":"Point","coordinates":[105.9630739288653,23.538322835873462]}},{"type":"Feature","properties":{"NAME":"右江区","QUHUADAIMA":"451002","Location":4,"Alignment":3},"geometry":{"type":"Point","coordinates":[106.72929207096961,24.024407310913844]}}]}