{"type":"FeatureCollection","name":"点","features":[{"type":"Feature","properties":{"NAME":"宜州区","QUHUADAIMA":"451203","Location":6,"Alignment":1},"geometry":{"type":"Point","coordinates":[108.78227106629372,24.62643234108598]}},{"type":"Feature","properties":{"NAME":"罗城仫佬族自治县","QUHUADAIMA":"451225","Location":4,"Alignment":3},"geometry":{"type":"Point","coordinates":[109.02211228404258,24.912932530626325]}},{"type":"Feature","properties":{"NAME":"环江毛南族自治县","QUHUADAIMA":"451226","Location":4,"Alignment":3},"geometry":{"type":"Point","coordinates":[108.38351844590324,24.966475580930567]}},{"type":"Feature","properties":{"NAME":"天峨县","QUHUADAIMA":"451222","Location":6,"Alignment":1},"geometry":{"type":"Point","coordinates":[107.29657065098456,25.127676996816554]}},{"type":"Feature","properties":{"NAME":"南丹县","QUHUADAIMA":"451221","Location":6,"Alignment":1},"geometry":{"type":"Point","coordinates":[107.66986749418719,25.111126947031014]}},{"type":"Feature","properties":{"NAME":"巴马瑶族自治县","QUHUADAIMA":"451227","Location":4,"Alignment":3},"geometry":{"type":"Point","coordinates":[107.37520115345136,24.273360977515026]}},{"type":"Feature","properties":{"NAME":"东兰县","QUHUADAIMA":"451224","Location":6,"Alignment":1},"geometry":{"type":"Point","coordinates":[107.4971575753702,24.642151638448347]}},{"type":"Feature","properties":{"NAME":"凤山县","QUHUADAIMA":"451223","Location":6,"Alignment":1},"geometry":{"type":"Point","coordinates":[107.1711099815722,24.675907983251314]}},{"type":"Feature","properties":{"NAME":"都安瑶族自治县","QUHUADAIMA":"451228","Location":2,"Alignment":2},"geometry":{"type":"Point","coordinates":[108.22287662719961,24.0671213927529]}},{"type":"Feature","properties":{"NAME":"大化瑶族自治县","QUHUADAIMA":"451229","Location":1,"Alignment":3},"geometry":{"type":"Point","coordinates":[108.11602108752362,23.867516134919949]}},{"type":"Feature","properties":{"NAME":"金城江区","QUHUADAIMA":"451202","Location":6,"Alignment":1},"geometry":{"type":"Point","coordinates":[108.18859647698228,24.818718240205445]}}]}