{"type":"FeatureCollection","name":"点","features":[{"type":"Feature","properties":{"NAME":"合山市","QUHUADAIMA":"451381","Location":6,"Alignment":1},"geometry":{"type":"Point","coordinates":[109.01092977596424,23.94673461508614]}},{"type":"Feature","properties":{"NAME":"金秀瑶族自治县","QUHUADAIMA":"451324","Location":6,"Alignment":1},"geometry":{"type":"Point","coordinates":[110.31530740869061,24.260947027975455]}},{"type":"Feature","properties":{"NAME":"忻城县","QUHUADAIMA":"451321","Location":6,"Alignment":1},"geometry":{"type":"Point","coordinates":[108.7937035818959,24.19730082465535]}},{"type":"Feature","properties":{"NAME":"象州县","QUHUADAIMA":"451322","Location":6,"Alignment":1},"geometry":{"type":"Point","coordinates":[109.80534486096754,24.089326061537712]}},{"type":"Feature","properties":{"NAME":"武宣县","QUHUADAIMA":"451323","Location":6,"Alignment":1},"geometry":{"type":"Point","coordinates":[109.7827059239543,23.725197397883186]}},{"type":"Feature","properties":{"NAME":"兴宾区","QUHUADAIMA":"451302","Location":4,"Alignment":3},"geometry":{"type":"Point","coordinates":[109.36343945236713,23.8616559805373]}}]}