{"type":"FeatureCollection","name":"点","features":[{"type":"Feature","properties":{"NAME":"富顺县","QUHUADAIMA":"510322","Location":6,"Alignment":1},"geometry":{"type":"Point","coordinates":[105.12504258158366,29.311123498445486]}},{"type":"Feature","properties":{"NAME":"荣县","QUHUADAIMA":"510321","Location":6,"Alignment":1},"geometry":{"type":"Point","coordinates":[104.54670586902719,29.588122356852768]}},{"type":"Feature","properties":{"NAME":"贡井区","QUHUADAIMA":"510303","Location":4,"Alignment":3},"geometry":{"type":"Point","coordinates":[104.8404794758202,29.479066562119574]}},{"type":"Feature","properties":{"NAME":"沿滩区","QUHUADAIMA":"510311","Location":6,"Alignment":1},"geometry":{"type":"Point","coordinates":[105.00150090163977,29.403495288580363]}},{"type":"Feature","properties":{"NAME":"大安区","QUHUADAIMA":"510304","Location":3,"Alignment":1},"geometry":{"type":"Point","coordinates":[104.89839527434646,29.496569384411622]}},{"type":"Feature","properties":{"NAME":"自流井区","QUHUADAIMA":"510302","Location":9,"Alignment":1},"geometry":{"type":"Point","coordinates":[104.88772428599449,29.486763198998343]}}]}