{"type":"FeatureCollection","name":"点","features":[{"type":"Feature","properties":{"NAME":"蓬溪县","QUHUADAIMA":"510921","Location":6,"Alignment":1},"geometry":{"type":"Point","coordinates":[105.83986493142686,30.912515123640972]}},{"type":"Feature","properties":{"NAME":"射洪县","QUHUADAIMA":"510922","Location":6,"Alignment":1},"geometry":{"type":"Point","coordinates":[105.51221405707858,31.00155503311224]}},{"type":"Feature","properties":{"NAME":"大英县","QUHUADAIMA":"510923","Location":6,"Alignment":1},"geometry":{"type":"Point","coordinates":[105.37831866569259,30.71894150921063]}},{"type":"Feature","properties":{"NAME":"安居区","QUHUADAIMA":"510904","Location":6,"Alignment":1},"geometry":{"type":"Point","coordinates":[105.58588282951861,30.480710542142408]}},{"type":"Feature","properties":{"NAME":"船山区","QUHUADAIMA":"510903","Location":6,"Alignment":1},"geometry":{"type":"Point","coordinates":[105.70922129266552,30.63193326291945]}}]}