{"type":"FeatureCollection","name":"点","features":[{"type":"Feature","properties":{"NAME":"威远县","QUHUADAIMA":"511024","Location":6,"Alignment":1},"geometry":{"type":"Point","coordinates":[104.7925415543571,29.653902162242105]}},{"type":"Feature","properties":{"NAME":"资中县","QUHUADAIMA":"511025","Location":6,"Alignment":1},"geometry":{"type":"Point","coordinates":[104.97682092307082,29.911117272665102]}},{"type":"Feature","properties":{"NAME":"隆昌市","QUHUADAIMA":"511083","Location":6,"Alignment":1},"geometry":{"type":"Point","coordinates":[105.41272000477086,29.479870756531028]}},{"type":"Feature","properties":{"NAME":"市中区","QUHUADAIMA":"511002","Location":4,"Alignment":3},"geometry":{"type":"Point","coordinates":[105.19189236590108,29.719664856906125]}},{"type":"Feature","properties":{"NAME":"东兴区","QUHUADAIMA":"511011","Location":3,"Alignment":1},"geometry":{"type":"Point","coordinates":[105.19989630178884,29.723807902010158]}}]}