{"type":"FeatureCollection","name":"点","features":[{"type":"Feature","properties":{"NAME":"小金县","QUHUADAIMA":"513227","Location":6,"Alignment":1},"geometry":{"type":"Point","coordinates":[102.49897358150867,31.126039011230421]}},{"type":"Feature","properties":{"NAME":"金川县","QUHUADAIMA":"513226","Location":6,"Alignment":1},"geometry":{"type":"Point","coordinates":[102.19074850978385,31.607257370047456]}},{"type":"Feature","properties":{"NAME":"马尔康市","QUHUADAIMA":"513201","Location":6,"Alignment":1},"geometry":{"type":"Point","coordinates":[102.34945371733225,32.031841748545865]}},{"type":"Feature","properties":{"NAME":"理县","QUHUADAIMA":"513222","Location":4,"Alignment":3},"geometry":{"type":"Point","coordinates":[103.29929375842973,31.573489476786527]}},{"type":"Feature","properties":{"NAME":"汶川县","QUHUADAIMA":"513221","Location":4,"Alignment":3},"geometry":{"type":"Point","coordinates":[103.71114207463577,31.613785246938892]}},{"type":"Feature","properties":{"NAME":"茂县","QUHUADAIMA":"513223","Location":4,"Alignment":3},"geometry":{"type":"Point","coordinates":[103.97794204320796,31.810891292400296]}},{"type":"Feature","properties":{"NAME":"壤塘县","QUHUADAIMA":"513230","Location":6,"Alignment":1},"geometry":{"type":"Point","coordinates":[101.10771585301031,32.39974469747375]}},{"type":"Feature","properties":{"NAME":"阿坝县","QUHUADAIMA":"513231","Location":6,"Alignment":1},"geometry":{"type":"Point","coordinates":[101.83063433186189,33.033985731858309]}},{"type":"Feature","properties":{"NAME":"红原县","QUHUADAIMA":"513233","Location":6,"Alignment":1},"geometry":{"type":"Point","coordinates":[102.67198181916804,32.921541445181738]}},{"type":"Feature","properties":{"NAME":"黑水县","QUHUADAIMA":"513228","Location":6,"Alignment":1},"geometry":{"type":"Point","coordinates":[103.11464262983286,32.19726133590197]}},{"type":"Feature","properties":{"NAME":"松潘县","QUHUADAIMA":"513224","Location":6,"Alignment":1},"geometry":{"type":"Point","coordinates":[103.72495715583911,32.771096489650091]}},{"type":"Feature","properties":{"NAME":"若尔盖县","QUHUADAIMA":"513232","Location":6,"Alignment":1},"geometry":{"type":"Point","coordinates":[103.09187254114026,33.709491709462988]}},{"type":"Feature","properties":{"NAME":"九寨沟县","QUHUADAIMA":"513225","Location":4,"Alignment":3},"geometry":{"type":"Point","coordinates":[104.36263288385558,33.391732472019314]}}]}