{"type":"FeatureCollection","name":"点","features":[{"type":"Feature","properties":{"NAME":"西昌市","QUHUADAIMA":"513401","Location":6,"Alignment":1},"geometry":{"type":"Point","coordinates":[102.39394053634348,28.017028201325086]}},{"type":"Feature","properties":{"NAME":"会理县","QUHUADAIMA":"513425","Location":6,"Alignment":1},"geometry":{"type":"Point","coordinates":[102.37082052059033,26.796232509570398]}},{"type":"Feature","properties":{"NAME":"会东县","QUHUADAIMA":"513426","Location":6,"Alignment":1},"geometry":{"type":"Point","coordinates":[102.70127688436861,26.771485454314597]}},{"type":"Feature","properties":{"NAME":"木里藏族自治县","QUHUADAIMA":"513422","Location":6,"Alignment":1},"geometry":{"type":"Point","coordinates":[101.40740809446292,28.061261208027361]}},{"type":"Feature","properties":{"NAME":"盐源县","QUHUADAIMA":"513423","Location":6,"Alignment":1},"geometry":{"type":"Point","coordinates":[101.63767744024995,27.55448998438936]}},{"type":"Feature","properties":{"NAME":"宁南县","QUHUADAIMA":"513427","Location":6,"Alignment":1},"geometry":{"type":"Point","coordinates":[102.88533477571365,27.200258793958508]}},{"type":"Feature","properties":{"NAME":"布拖县","QUHUADAIMA":"513429","Location":6,"Alignment":1},"geometry":{"type":"Point","coordinates":[102.94006930237923,27.839927757397959]}},{"type":"Feature","properties":{"NAME":"德昌县","QUHUADAIMA":"513424","Location":6,"Alignment":1},"geometry":{"type":"Point","coordinates":[102.30631801657896,27.537021357726239]}},{"type":"Feature","properties":{"NAME":"普格县","QUHUADAIMA":"513428","Location":6,"Alignment":1},"geometry":{"type":"Point","coordinates":[102.67065133860997,27.509498000117059]}},{"type":"Feature","properties":{"NAME":"金阳县","QUHUADAIMA":"513430","Location":6,"Alignment":1},"geometry":{"type":"Point","coordinates":[103.37727418285999,27.8296905616786]}},{"type":"Feature","properties":{"NAME":"甘洛县","QUHUADAIMA":"513435","Location":6,"Alignment":1},"geometry":{"type":"Point","coordinates":[102.90030620891967,29.102080818344668]}},{"type":"Feature","properties":{"NAME":"越西县","QUHUADAIMA":"513434","Location":6,"Alignment":1},"geometry":{"type":"Point","coordinates":[102.63939923126853,28.774614198579695]}},{"type":"Feature","properties":{"NAME":"冕宁县","QUHUADAIMA":"513433","Location":6,"Alignment":1},"geometry":{"type":"Point","coordinates":[102.29651946461326,28.680140821237305]}},{"type":"Feature","properties":{"NAME":"喜德县","QUHUADAIMA":"513432","Location":6,"Alignment":1},"geometry":{"type":"Point","coordinates":[102.53611566623796,28.438952446210489]}},{"type":"Feature","properties":{"NAME":"昭觉县","QUHUADAIMA":"513431","Location":6,"Alignment":1},"geometry":{"type":"Point","coordinates":[102.97089448462292,28.145099268123793]}},{"type":"Feature","properties":{"NAME":"美姑县","QUHUADAIMA":"513436","Location":4,"Alignment":3},"geometry":{"type":"Point","coordinates":[103.24973305198397,28.45471187567242]}},{"type":"Feature","properties":{"NAME":"雷波县","QUHUADAIMA":"513437","Location":4,"Alignment":3},"geometry":{"type":"Point","coordinates":[103.69770533739143,28.395897511019271]}}]}