{"type":"FeatureCollection","name":"点","features":[{"type":"Feature","properties":{"NAME":"清镇市","QUHUADAIMA":"520181","Location":4,"Alignment":3},"geometry":{"type":"Point","coordinates":[106.59319601101326,26.685434276891957]}},{"type":"Feature","properties":{"NAME":"开阳县","QUHUADAIMA":"520121","Location":6,"Alignment":1},"geometry":{"type":"Point","coordinates":[107.09191474750595,27.188332069057669]}},{"type":"Feature","properties":{"NAME":"息烽县","QUHUADAIMA":"520122","Location":4,"Alignment":3},"geometry":{"type":"Point","coordinates":[106.86224577995907,27.225762169143671]}},{"type":"Feature","properties":{"NAME":"修文县","QUHUADAIMA":"520123","Location":6,"Alignment":1},"geometry":{"type":"Point","coordinates":[106.71938644391622,26.971876653061685]}},{"type":"Feature","properties":{"NAME":"云岩区","QUHUADAIMA":"520103","Location":7,"Alignment":1},"geometry":{"type":"Point","coordinates":[106.84801814109243,26.738137730383954]}},{"type":"Feature","properties":{"NAME":"南明区","QUHUADAIMA":"520102","Location":9,"Alignment":1},"geometry":{"type":"Point","coordinates":[106.83953542903431,26.700483422620994]}},{"type":"Feature","properties":{"NAME":"白云区","QUHUADAIMA":"520113","Location":6,"Alignment":1},"geometry":{"type":"Point","coordinates":[106.74853969899536,26.8113435494632]}},{"type":"Feature","properties":{"NAME":"花溪区","QUHUADAIMA":"520111","Location":4,"Alignment":3},"geometry":{"type":"Point","coordinates":[106.79638325955951,26.559291109794597]}},{"type":"Feature","properties":{"NAME":"乌当区","QUHUADAIMA":"520112","Location":3,"Alignment":1},"geometry":{"type":"Point","coordinates":[106.87609247770257,26.764084958354715]}},{"type":"Feature","properties":{"NAME":"观山湖区","QUHUADAIMA":"520114","Location":4,"Alignment":3},"geometry":{"type":"Point","coordinates":[106.74817475306405,26.734806364611739]}}]}