{"type":"FeatureCollection","name":"点","features":[{"type":"Feature","properties":{"NAME":"金沙县","QUHUADAIMA":"520523","Location":8,"Alignment":2},"geometry":{"type":"Point","coordinates":[106.3432931673393,27.593220798603905]}},{"type":"Feature","properties":{"NAME":"黔西县","QUHUADAIMA":"520522","Location":6,"Alignment":1},"geometry":{"type":"Point","coordinates":[106.1569735011516,27.162154544015646]}},{"type":"Feature","properties":{"NAME":"大方县","QUHUADAIMA":"520521","Location":6,"Alignment":1},"geometry":{"type":"Point","coordinates":[105.73701750131892,27.278480929667033]}},{"type":"Feature","properties":{"NAME":"赫章县","QUHUADAIMA":"520527","Location":8,"Alignment":2},"geometry":{"type":"Point","coordinates":[104.8514718908491,27.257312195067531]}},{"type":"Feature","properties":{"NAME":"织金县","QUHUADAIMA":"520524","Location":6,"Alignment":1},"geometry":{"type":"Point","coordinates":[105.89763413955957,26.796233566830743]}},{"type":"Feature","properties":{"NAME":"纳雍县","QUHUADAIMA":"520525","Location":6,"Alignment":1},"geometry":{"type":"Point","coordinates":[105.50208482812539,26.906442840918636]}},{"type":"Feature","properties":{"NAME":"威宁彝族回族苗族自治县","QUHUADAIMA":"520526","Location":8,"Alignment":2},"geometry":{"type":"Point","coordinates":[104.4156748045484,26.991650328400407]}},{"type":"Feature","properties":{"NAME":"七星关区","QUHUADAIMA":"520502","Location":7,"Alignment":3},"geometry":{"type":"Point","coordinates":[105.42629474710438,27.429722188104122]}}]}