{"type":"FeatureCollection","name":"点","features":[{"type":"Feature","properties":{"NAME":"安宁市","QUHUADAIMA":"530181","Location":4,"Alignment":3},"geometry":{"type":"Point","coordinates":[102.61477593089806,25.053236936566428]}},{"type":"Feature","properties":{"NAME":"宜良县","QUHUADAIMA":"530125","Location":6,"Alignment":1},"geometry":{"type":"Point","coordinates":[103.2727267760676,25.045577869774526]}},{"type":"Feature","properties":{"NAME":"石林彝族自治县","QUHUADAIMA":"530126","Location":6,"Alignment":1},"geometry":{"type":"Point","coordinates":[103.39233745745592,24.891538035304638]}},{"type":"Feature","properties":{"NAME":"晋宁区","QUHUADAIMA":"530115","Location":6,"Alignment":1},"geometry":{"type":"Point","coordinates":[102.71790307696455,24.801433142843305]}},{"type":"Feature","properties":{"NAME":"禄劝彝族苗族自治县","QUHUADAIMA":"530128","Location":6,"Alignment":1},"geometry":{"type":"Point","coordinates":[102.59187779803501,25.685690936317989]}},{"type":"Feature","properties":{"NAME":"寻甸回族彝族自治县","QUHUADAIMA":"530129","Location":6,"Alignment":1},"geometry":{"type":"Point","coordinates":[103.38291044184439,25.691893714795182]}},{"type":"Feature","properties":{"NAME":"嵩明县","QUHUADAIMA":"530127","Location":6,"Alignment":1},"geometry":{"type":"Point","coordinates":[103.16503266015488,25.468473838073809]}},{"type":"Feature","properties":{"NAME":"富民县","QUHUADAIMA":"530124","Location":6,"Alignment":1},"geometry":{"type":"Point","coordinates":[102.62185326286604,25.352561548469271]}},{"type":"Feature","properties":{"NAME":"官渡区","QUHUADAIMA":"530111","Location":9,"Alignment":1},"geometry":{"type":"Point","coordinates":[102.87072677917915,25.148315979381138]}},{"type":"Feature","properties":{"NAME":"西山区","QUHUADAIMA":"530112","Location":4,"Alignment":3},"geometry":{"type":"Point","coordinates":[102.79194536042145,25.169704213887179]}},{"type":"Feature","properties":{"NAME":"盘龙区","QUHUADAIMA":"530103","Location":3,"Alignment":1},"geometry":{"type":"Point","coordinates":[102.87160712601207,25.243387826592539]}},{"type":"Feature","properties":{"NAME":"五华区","QUHUADAIMA":"530102","Location":3,"Alignment":1},"geometry":{"type":"Point","coordinates":[102.83396164927954,25.176167723976441]}},{"type":"Feature","properties":{"NAME":"东川区","QUHUADAIMA":"530113","Location":6,"Alignment":1},"geometry":{"type":"Point","coordinates":[103.31092430929748,26.20970041639395]}},{"type":"Feature","properties":{"NAME":"呈贡区","QUHUADAIMA":"530114","Location":6,"Alignment":1},"geometry":{"type":"Point","coordinates":[102.92667918355114,25.025896536396822]}}]}