{"type":"FeatureCollection","name":"点","features":[{"type":"Feature","properties":{"NAME":"文山市","QUHUADAIMA":"532601","Location":6,"Alignment":1},"geometry":{"type":"Point","coordinates":[104.37875610632479,23.496558671862015]}},{"type":"Feature","properties":{"NAME":"砚山县","QUHUADAIMA":"532622","Location":6,"Alignment":1},"geometry":{"type":"Point","coordinates":[104.46280735504173,23.739110851922934]}},{"type":"Feature","properties":{"NAME":"西畴县","QUHUADAIMA":"532623","Location":6,"Alignment":1},"geometry":{"type":"Point","coordinates":[104.80077890387548,23.57053087071878]}},{"type":"Feature","properties":{"NAME":"马关县","QUHUADAIMA":"532625","Location":6,"Alignment":1},"geometry":{"type":"Point","coordinates":[104.52561016352077,23.142629215997609]}},{"type":"Feature","properties":{"NAME":"麻栗坡县","QUHUADAIMA":"532624","Location":6,"Alignment":1},"geometry":{"type":"Point","coordinates":[104.82838074115654,23.255391561097696]}},{"type":"Feature","properties":{"NAME":"富宁县","QUHUADAIMA":"532628","Location":6,"Alignment":1},"geometry":{"type":"Point","coordinates":[105.74529663724285,23.756571099921374]}},{"type":"Feature","properties":{"NAME":"丘北县","QUHUADAIMA":"532626","Location":6,"Alignment":1},"geometry":{"type":"Point","coordinates":[104.32196157834179,24.174598262878565]}},{"type":"Feature","properties":{"NAME":"广南县","QUHUADAIMA":"532627","Location":6,"Alignment":1},"geometry":{"type":"Point","coordinates":[105.19151322787306,24.179660818526976]}}]}