{"type":"FeatureCollection","name":"点","features":[{"type":"Feature","properties":{"NAME":"大理市","QUHUADAIMA":"532901","Location":6,"Alignment":1},"geometry":{"type":"Point","coordinates":[100.35084979937565,25.715015204188614]}},{"type":"Feature","properties":{"NAME":"云龙县","QUHUADAIMA":"532929","Location":6,"Alignment":1},"geometry":{"type":"Point","coordinates":[99.500401191139687,26.016762316869539]}},{"type":"Feature","properties":{"NAME":"漾濞彝族自治县","QUHUADAIMA":"532922","Location":4,"Alignment":3},"geometry":{"type":"Point","coordinates":[100.08367432541991,25.796978911974858]}},{"type":"Feature","properties":{"NAME":"永平县","QUHUADAIMA":"532928","Location":6,"Alignment":1},"geometry":{"type":"Point","coordinates":[99.651456656672238,25.592972965341414]}},{"type":"Feature","properties":{"NAME":"弥渡县","QUHUADAIMA":"532925","Location":6,"Alignment":1},"geometry":{"type":"Point","coordinates":[100.61443494480146,25.476646361798]}},{"type":"Feature","properties":{"NAME":"巍山彝族回族自治县","QUHUADAIMA":"532927","Location":4,"Alignment":3},"geometry":{"type":"Point","coordinates":[100.43637899818484,25.360108117650103]}},{"type":"Feature","properties":{"NAME":"祥云县","QUHUADAIMA":"532923","Location":6,"Alignment":1},"geometry":{"type":"Point","coordinates":[100.68474549476855,25.609088463391387]}},{"type":"Feature","properties":{"NAME":"南涧彝族自治县","QUHUADAIMA":"532926","Location":7,"Alignment":3},"geometry":{"type":"Point","coordinates":[100.64837735835826,25.17988541405229]}},{"type":"Feature","properties":{"NAME":"宾川县","QUHUADAIMA":"532924","Location":6,"Alignment":1},"geometry":{"type":"Point","coordinates":[100.70322074993922,25.959300838435684]}},{"type":"Feature","properties":{"NAME":"剑川县","QUHUADAIMA":"532931","Location":7,"Alignment":3},"geometry":{"type":"Point","coordinates":[100.03028271429247,26.661581219165807]}},{"type":"Feature","properties":{"NAME":"鹤庆县","QUHUADAIMA":"532932","Location":6,"Alignment":1},"geometry":{"type":"Point","coordinates":[100.30310746179225,26.692134756825016]}},{"type":"Feature","properties":{"NAME":"洱源县","QUHUADAIMA":"532930","Location":6,"Alignment":1},"geometry":{"type":"Point","coordinates":[100.07629176153913,26.239841580269836]}}]}