{"type":"FeatureCollection","name":"点","features":[{"type":"Feature","properties":{"NAME":"林周县","QUHUADAIMA":"540121","Location":4,"Alignment":3},"geometry":{"type":"Point","coordinates":[91.385883836960687,30.025460160639746]}},{"type":"Feature","properties":{"NAME":"堆龙德庆区","QUHUADAIMA":"540103","Location":4,"Alignment":3},"geometry":{"type":"Point","coordinates":[91.1267236882062,29.780809677597848]}},{"type":"Feature","properties":{"NAME":"尼木县","QUHUADAIMA":"540123","Location":6,"Alignment":1},"geometry":{"type":"Point","coordinates":[90.2861603209836,29.571111362182645]}},{"type":"Feature","properties":{"NAME":"曲水县","QUHUADAIMA":"540124","Location":2,"Alignment":2},"geometry":{"type":"Point","coordinates":[90.860147768571849,29.487915346444272]}},{"type":"Feature","properties":{"NAME":"达孜区","QUHUADAIMA":"540104","Location":6,"Alignment":1},"geometry":{"type":"Point","coordinates":[91.479001427592479,29.803992707949782]}},{"type":"Feature","properties":{"NAME":"墨竹工卡县","QUHUADAIMA":"540127","Location":6,"Alignment":1},"geometry":{"type":"Point","coordinates":[91.854542495841,29.966343172409211]}},{"type":"Feature","properties":{"NAME":"当雄县","QUHUADAIMA":"540122","Location":6,"Alignment":1},"geometry":{"type":"Point","coordinates":[91.232344449548,30.614156926656943]}},{"type":"Feature","properties":{"NAME":"城关区","QUHUADAIMA":"540102","Location":2,"Alignment":2},"geometry":{"type":"Point","coordinates":[91.26548563841547,29.785054987163626]}}]}