{"type":"FeatureCollection","name":"点","features":[{"type":"Feature","properties":{"NAME":"兴平市","QUHUADAIMA":"610481","Location":6,"Alignment":1},"geometry":{"type":"Point","coordinates":[108.61146968070324,34.428892086265385]}},{"type":"Feature","properties":{"NAME":"彬州市","QUHUADAIMA":"610482","Location":6,"Alignment":1},"geometry":{"type":"Point","coordinates":[108.2067151993195,35.165667152792182]}},{"type":"Feature","properties":{"NAME":"旬邑县","QUHUADAIMA":"610429","Location":6,"Alignment":1},"geometry":{"type":"Point","coordinates":[108.45605398092614,35.240854252412745]}},{"type":"Feature","properties":{"NAME":"长武县","QUHUADAIMA":"610428","Location":6,"Alignment":1},"geometry":{"type":"Point","coordinates":[107.9161265715845,35.335220400413483]}},{"type":"Feature","properties":{"NAME":"三原县","QUHUADAIMA":"610422","Location":6,"Alignment":1},"geometry":{"type":"Point","coordinates":[109.05703317993283,34.749126283912766]}},{"type":"Feature","properties":{"NAME":"淳化县","QUHUADAIMA":"610430","Location":6,"Alignment":1},"geometry":{"type":"Point","coordinates":[108.71109666637625,34.91891875003747]}},{"type":"Feature","properties":{"NAME":"武功县","QUHUADAIMA":"610431","Location":6,"Alignment":1},"geometry":{"type":"Point","coordinates":[108.33124088050458,34.394710862489575]}},{"type":"Feature","properties":{"NAME":"泾阳县","QUHUADAIMA":"610423","Location":6,"Alignment":1},"geometry":{"type":"Point","coordinates":[108.96459057769368,34.65910704546198]}},{"type":"Feature","properties":{"NAME":"礼泉县","QUHUADAIMA":"610425","Location":6,"Alignment":1},"geometry":{"type":"Point","coordinates":[108.5502829998174,34.618660559723338]}},{"type":"Feature","properties":{"NAME":"乾县","QUHUADAIMA":"610424","Location":6,"Alignment":1},"geometry":{"type":"Point","coordinates":[108.36541768074461,34.662626089521325]}},{"type":"Feature","properties":{"NAME":"永寿县","QUHUADAIMA":"610426","Location":6,"Alignment":1},"geometry":{"type":"Point","coordinates":[108.26853027220017,34.8225774028673]}},{"type":"Feature","properties":{"NAME":"渭城区","QUHUADAIMA":"610404","Location":2,"Alignment":2},"geometry":{"type":"Point","coordinates":[108.88000991875447,34.482168060819049]}},{"type":"Feature","properties":{"NAME":"秦都区","QUHUADAIMA":"610402","Location":8,"Alignment":2},"geometry":{"type":"Point","coordinates":[108.8353014139428,34.458712985516243]}},{"type":"Feature","properties":{"NAME":"杨陵区","QUHUADAIMA":"610403","Location":8,"Alignment":2},"geometry":{"type":"Point","coordinates":[108.19630515950964,34.407161513853993]}}]}