{"type":"FeatureCollection","name":"点","features":[{"type":"Feature","properties":{"NAME":"韩城市","QUHUADAIMA":"610581","Location":2,"Alignment":2},"geometry":{"type":"Point","coordinates":[110.56128742853861,35.592147901981747]}},{"type":"Feature","properties":{"NAME":"华阴市","QUHUADAIMA":"610582","Location":8,"Alignment":2},"geometry":{"type":"Point","coordinates":[110.21953951074271,34.697303936723586]}},{"type":"Feature","properties":{"NAME":"澄城县","QUHUADAIMA":"610525","Location":2,"Alignment":2},"geometry":{"type":"Point","coordinates":[110.05664177425294,35.315207624104708]}},{"type":"Feature","properties":{"NAME":"白水县","QUHUADAIMA":"610527","Location":6,"Alignment":1},"geometry":{"type":"Point","coordinates":[109.71670620944747,35.3080665175983]}},{"type":"Feature","properties":{"NAME":"合阳县","QUHUADAIMA":"610524","Location":6,"Alignment":1},"geometry":{"type":"Point","coordinates":[110.26951171951052,35.370692241040445]}},{"type":"Feature","properties":{"NAME":"蒲城县","QUHUADAIMA":"610526","Location":6,"Alignment":1},"geometry":{"type":"Point","coordinates":[109.71016081411838,35.088911241232829]}},{"type":"Feature","properties":{"NAME":"华州区","QUHUADAIMA":"610503","Location":6,"Alignment":1},"geometry":{"type":"Point","coordinates":[109.89387784607986,34.645391864607568]}},{"type":"Feature","properties":{"NAME":"大荔县","QUHUADAIMA":"610523","Location":6,"Alignment":1},"geometry":{"type":"Point","coordinates":[110.07136268735547,34.925277214740554]}},{"type":"Feature","properties":{"NAME":"富平县","QUHUADAIMA":"610528","Location":6,"Alignment":1},"geometry":{"type":"Point","coordinates":[109.30204667349651,34.878484190933619]}},{"type":"Feature","properties":{"NAME":"潼关县","QUHUADAIMA":"610522","Location":6,"Alignment":1},"geometry":{"type":"Point","coordinates":[110.37067077560303,34.673983355110835]}},{"type":"Feature","properties":{"NAME":"临渭区","QUHUADAIMA":"610502","Location":6,"Alignment":1},"geometry":{"type":"Point","coordinates":[109.63225720920957,34.628735552629863]}}]}