{"type":"FeatureCollection","name":"点","features":[{"type":"Feature","properties":{"NAME":"景泰县","QUHUADAIMA":"620423","Location":6,"Alignment":1},"geometry":{"type":"Point","coordinates":[104.19051408586458,37.283621358320815]}},{"type":"Feature","properties":{"NAME":"靖远县","QUHUADAIMA":"620421","Location":6,"Alignment":1},"geometry":{"type":"Point","coordinates":[104.80718055564522,36.693638384289549]}},{"type":"Feature","properties":{"NAME":"会宁县","QUHUADAIMA":"620422","Location":6,"Alignment":1},"geometry":{"type":"Point","coordinates":[105.17488321780176,35.823906076884548]}},{"type":"Feature","properties":{"NAME":"白银区","QUHUADAIMA":"620402","Location":5,"Alignment":1},"geometry":{"type":"Point","coordinates":[104.31469008231792,36.676501796610268]}},{"type":"Feature","properties":{"NAME":"平川区","QUHUADAIMA":"620403","Location":6,"Alignment":1},"geometry":{"type":"Point","coordinates":[104.97051712989227,36.8444838123622]}}]}