{"type":"FeatureCollection","name":"点","features":[{"type":"Feature","properties":{"NAME":"清水县","QUHUADAIMA":"620521","Location":6,"Alignment":1},"geometry":{"type":"Point","coordinates":[106.2634954937943,34.881846063091572]}},{"type":"Feature","properties":{"NAME":"张家川回族自治县","QUHUADAIMA":"620525","Location":6,"Alignment":1},"geometry":{"type":"Point","coordinates":[106.33371561606268,35.126179920451541]}},{"type":"Feature","properties":{"NAME":"秦安县","QUHUADAIMA":"620522","Location":6,"Alignment":1},"geometry":{"type":"Point","coordinates":[105.79665118476571,34.993113018789309]}},{"type":"Feature","properties":{"NAME":"甘谷县","QUHUADAIMA":"620523","Location":6,"Alignment":1},"geometry":{"type":"Point","coordinates":[105.45603286292632,34.869711989225621]}},{"type":"Feature","properties":{"NAME":"武山县","QUHUADAIMA":"620524","Location":6,"Alignment":1},"geometry":{"type":"Point","coordinates":[105.01611863072141,34.853580923369954]}},{"type":"Feature","properties":{"NAME":"秦州区","QUHUADAIMA":"620502","Location":4,"Alignment":3},"geometry":{"type":"Point","coordinates":[105.8476420349641,34.713164437117669]}},{"type":"Feature","properties":{"NAME":"麦积区","QUHUADAIMA":"620503","Location":6,"Alignment":1},"geometry":{"type":"Point","coordinates":[106.01973533017629,34.69853414377647]}}]}