{"type":"FeatureCollection","name":"点","features":[{"type":"Feature","properties":{"NAME":"临泽县","QUHUADAIMA":"620723","Location":4,"Alignment":3},"geometry":{"type":"Point","coordinates":[100.29444828803521,39.269696376226328]}},{"type":"Feature","properties":{"NAME":"高台县","QUHUADAIMA":"620724","Location":4,"Alignment":3},"geometry":{"type":"Point","coordinates":[99.947305797260015,39.500357428595017]}},{"type":"Feature","properties":{"NAME":"民乐县","QUHUADAIMA":"620722","Location":2,"Alignment":2},"geometry":{"type":"Point","coordinates":[100.9409876697774,38.563181842748961]}},{"type":"Feature","properties":{"NAME":"山丹县","QUHUADAIMA":"620725","Location":9,"Alignment":1},"geometry":{"type":"Point","coordinates":[101.21589681590359,38.909101019720111]}},{"type":"Feature","properties":{"NAME":"肃南裕固族自治县","QUHUADAIMA":"620721","Location":5,"Alignment":1},"geometry":{"type":"Point","coordinates":[99.743337266682346,38.969117429601127]}},{"type":"Feature","properties":{"NAME":"甘州区","QUHUADAIMA":"620702","Location":1,"Alignment":3},"geometry":{"type":"Point","coordinates":[100.57706567808073,39.063081106215328]}}]}