{"type":"FeatureCollection","name":"点","features":[{"type":"Feature","properties":{"NAME":"甘德县","QUHUADAIMA":"632623","Location":6,"Alignment":1},"geometry":{"type":"Point","coordinates":[100.02612281193694,34.098956414903576]}},{"type":"Feature","properties":{"NAME":"玛沁县","QUHUADAIMA":"632621","Location":6,"Alignment":1},"geometry":{"type":"Point","coordinates":[100.36918317963645,34.60542830190608]}},{"type":"Feature","properties":{"NAME":"班玛县","QUHUADAIMA":"632622","Location":6,"Alignment":1},"geometry":{"type":"Point","coordinates":[100.86567904606619,33.064086062935942]}},{"type":"Feature","properties":{"NAME":"达日县","QUHUADAIMA":"632624","Location":6,"Alignment":1},"geometry":{"type":"Point","coordinates":[99.77820957187636,33.880321848228967]}},{"type":"Feature","properties":{"NAME":"久治县","QUHUADAIMA":"632625","Location":4,"Alignment":3},"geometry":{"type":"Point","coordinates":[101.61385957031656,33.560633679705106]}},{"type":"Feature","properties":{"NAME":"玛多县","QUHUADAIMA":"632626","Location":6,"Alignment":1},"geometry":{"type":"Point","coordinates":[98.31255643883955,35.04194430207442]}}]}