{"type":"FeatureCollection","name":"点","features":[{"type":"Feature","properties":{"NAME":"乌苏市","QUHUADAIMA":"654202","Location":4,"Alignment":3},"geometry":{"type":"Point","coordinates":[84.750216349020562,44.560326666020586]}},{"type":"Feature","properties":{"NAME":"塔城市","QUHUADAIMA":"654201","Location":6,"Alignment":1},"geometry":{"type":"Point","coordinates":[83.10364707374211,46.880187854651695]}},{"type":"Feature","properties":{"NAME":"沙湾县","QUHUADAIMA":"654223","Location":8,"Alignment":2},"geometry":{"type":"Point","coordinates":[85.745848778890419,44.460202264582243]}},{"type":"Feature","properties":{"NAME":"托里县","QUHUADAIMA":"654224","Location":6,"Alignment":1},"geometry":{"type":"Point","coordinates":[83.732441111243389,46.06636656422419]}},{"type":"Feature","properties":{"NAME":"裕民县","QUHUADAIMA":"654225","Location":6,"Alignment":1},"geometry":{"type":"Point","coordinates":[83.1037901404748,46.331975733529696]}},{"type":"Feature","properties":{"NAME":"额敏县","QUHUADAIMA":"654221","Location":6,"Alignment":1},"geometry":{"type":"Point","coordinates":[83.760546340989436,46.6551701795782]}},{"type":"Feature","properties":{"NAME":"和布克赛尔蒙古自治县","QUHUADAIMA":"654226","Location":6,"Alignment":1},"geometry":{"type":"Point","coordinates":[85.850196110899759,46.92199324921495]}}]}