{"type":"FeatureCollection","name":"点","features":[{"type":"Feature","properties":{"NAME":"阿勒泰市","QUHUADAIMA":"654301","Location":1,"Alignment":3},"geometry":{"type":"Point","coordinates":[88.265241078610089,47.98303676907188]}},{"type":"Feature","properties":{"NAME":"富蕴县","QUHUADAIMA":"654322","Location":6,"Alignment":1},"geometry":{"type":"Point","coordinates":[89.650252221537343,47.122186246861276]}},{"type":"Feature","properties":{"NAME":"青河县","QUHUADAIMA":"654325","Location":6,"Alignment":1},"geometry":{"type":"Point","coordinates":[90.506379545451608,46.798603543252]}},{"type":"Feature","properties":{"NAME":"布尔津县","QUHUADAIMA":"654321","Location":2,"Alignment":2},"geometry":{"type":"Point","coordinates":[86.986989046120712,47.833630436186063]}},{"type":"Feature","properties":{"NAME":"吉木乃县","QUHUADAIMA":"654326","Location":6,"Alignment":1},"geometry":{"type":"Point","coordinates":[86.00196166693776,47.561730351701428]}},{"type":"Feature","properties":{"NAME":"福海县","QUHUADAIMA":"654323","Location":6,"Alignment":1},"geometry":{"type":"Point","coordinates":[87.621039139025029,47.236636498672482]}},{"type":"Feature","properties":{"NAME":"哈巴河县","QUHUADAIMA":"654324","Location":1,"Alignment":3},"geometry":{"type":"Point","coordinates":[86.547029226881151,48.189260388779367]}}]}